[
    {
        "id": 189,
        "name": "Blutspendezentrale",
        "address": null,
        "zip": "76133",
        "city": "Karlsruhe",
        "lat": "49.0176981",
        "lon": "8.371263599999999",
        "mon": "8:30-11:45; 14:30-17:00",
        "tue": "8:30-11:45; 14:30-17:45",
        "wed": "8:30-11:45; 14:30-18:45",
        "thu": "8:30-11:45; 14:30-17:45",
        "fri": "8:30-12:45",
        "sat": null,
        "sun": null,
        "url": "https://www.klinikum-karlsruhe.de/einrichtungen/spezielle-medizinische-einrichtungen/blutspendezentrale/#c4423",
        "phone": "0721 974-1720",
        "whole_blood_donation": "ja",
        "platelet_donation": "ja",
        "plasma_donation": "nein",
        "erythrocyte_donation": null
    },
    {
        "id": 1,
        "name": "Zentralinstitut f\u00c3\u00bcr Transfusionsmedizin und Blutspendedienst",
        "address": "Keplerstr. 32",
        "zip": "70174",
        "city": "Stuttgart",
        "lat": "48.7841484",
        "lon": "9.174564",
        "mon": "15:30-18:30",
        "tue": "8:00-12:45",
        "wed": "11:30:18:30",
        "thu": "8:00-12:45",
        "fri": "8:00-12:45",
        "sat": null,
        "sun": null,
        "url": "https://www.klinikum-stuttgart.de/kliniken-institute-zentren/zentralinstitut-fuer-transfusionsmedizin-und-blutspendedienst/blutspende/",
        "phone": "0711 27834701",
        "whole_blood_donation": "ja",
        "platelet_donation": "nein",
        "plasma_donation": "nein",
        "erythrocyte_donation": null
    },
    {
        "id": 2,
        "name": "Institut f\u00c3\u00bcr Transfusionsmedizin und Immunologie",
        "address": "Friedrich-Ebert-Str. 107",
        "zip": "68167",
        "city": "Mannheim",
        "lat": "49.50386",
        "lon": "8.49733",
        "mon": "7:30-11:00; 14:00-18:30",
        "tue": "7:30-11:00; 14:00-18:30",
        "wed": null,
        "thu": "7:30-11:00; 14:00-18:30",
        "fri": "7:30-11:00",
        "sat": null,
        "sun": null,
        "url": "https://www.blutspende.de/ueber-uns/institute-einrichtungen/mannheim/institut-mannheim.php",
        "phone": "0621 3706-0",
        "whole_blood_donation": "ja",
        "platelet_donation": "nein",
        "plasma_donation": "ja",
        "erythrocyte_donation": null
    },
    {
        "id": 3,
        "name": null,
        "address": "Otfried-M\u00c3\u00bcller-Stra\u00c3\u0178e 4/1",
        "zip": "72076",
        "city": "T\u00c3\u00bcbingen",
        "lat": "48.5319",
        "lon": "9.040189999999999",
        "mon": "9:00-19:00",
        "tue": "14:00-19:00",
        "wed": "9:00-19:00",
        "thu": "9:00-19:00",
        "fri": "9:00-19:00",
        "sat": null,
        "sun": null,
        "url": "https://www.blutspendezentrale.de/das-zentrum/oeffnungszeiten/",
        "phone": "07071 29 81616",
        "whole_blood_donation": "ja",
        "platelet_donation": "ja",
        "plasma_donation": "ja",
        "erythrocyte_donation": null
    },
    {
        "id": 4,
        "name": "Institut f\u00c3\u00bcr klinische Transfusionsmedizin und Immungenetik Ulm",
        "address": "Helmholtzstr. 10",
        "zip": "89081",
        "city": "Ulm",
        "lat": "48.42541",
        "lon": "9.961739999999999",
        "mon": "10:30-18:30",
        "tue": "7:45-15:00",
        "wed": "10:30-18:30",
        "thu": "11:00-19:00",
        "fri": "7:45-15:00",
        "sat": null,
        "sun": null,
        "url": "https://www.blutspende.de/ueber-uns/institute-einrichtungen/ulm/institut-ulm.php",
        "phone": "0731 150-560",
        "whole_blood_donation": "ja",
        "platelet_donation": "nein",
        "plasma_donation": "ja",
        "erythrocyte_donation": null
    },
    {
        "id": 5,
        "name": "Institut f\u00c3\u00bcr Transfusionsmedizin und Gentherapie",
        "address": "Hugstetter Str. 55",
        "zip": "79106",
        "city": "Freiburg",
        "lat": "48.0058642",
        "lon": "7.839487399999999",
        "mon": "8:00-15:00",
        "tue": "8:00-15:00",
        "wed": "12:00-19:00",
        "thu": "12:00-19:00",
        "fri": "8:00-13:00",
        "sat": "8:00-13:00",
        "sun": null,
        "url": "https://www.uniklinik-freiburg.de/itg/blutspende.html",
        "phone": "0761 27044444",
        "whole_blood_donation": "ja ",
        "platelet_donation": "ja",
        "plasma_donation": "nein",
        "erythrocyte_donation": null
    },
    {
        "id": 6,
        "name": "Abteilung f\u00c3\u00bcr Laboratoriumsmedizin und Krankenhaushygiene RBK",
        "address": "Auerbachstr. 100",
        "zip": "70376",
        "city": "Stuttgart",
        "lat": "48.8157674",
        "lon": "9.187367199999999",
        "mon": null,
        "tue": null,
        "wed": null,
        "thu": null,
        "fri": null,
        "sat": null,
        "sun": null,
        "url": "https://www.rbk.de/standorte/robert-bosch-krankenhaus/abteilungen/laboratoriumsmedizin-und-krankenhaushygiene/blutspende.html",
        "phone": "0711 8101-3555",
        "whole_blood_donation": "nein",
        "platelet_donation": "ja",
        "plasma_donation": "nein",
        "erythrocyte_donation": null
    },
    {
        "id": 190,
        "name": null,
        "address": "Otfried-M\u00fcller-Stra\u00dfe 4/1",
        "zip": "72076",
        "city": "T\u00fcbingen",
        "lat": "48.5319",
        "lon": "9.040189999999999",
        "mon": "9:00-19:00",
        "tue": "14:00-19:00",
        "wed": "9:00-19:00",
        "thu": "9:00-19:00",
        "fri": "9:00-19:00",
        "sat": null,
        "sun": null,
        "url": "https://www.blutspendezentrale.de/das-zentrum/oeffnungszeiten/",
        "phone": "07071 29 81616",
        "whole_blood_donation": "ja",
        "platelet_donation": "ja",
        "plasma_donation": "ja",
        "erythrocyte_donation": null
    },
    {
        "id": 8,
        "name": "Plasmaspende Mannheim",
        "address": "Heinrich-von-Stephan-Str. 5",
        "zip": "68161",
        "city": "Mannheim",
        "lat": "49.4786264",
        "lon": "8.472361",
        "mon": "12:00-20:00",
        "tue": "12:00-20:00",
        "wed": "12:00-20:00",
        "thu": "12:00-20:00",
        "fri": "12:00-20:00",
        "sat": "9:00-15:00",
        "sun": null,
        "url": "https://www.octapharmaplasma.de/standorte/mannheim",
        "phone": "0621 8191090",
        "whole_blood_donation": "nein",
        "platelet_donation": "nein",
        "plasma_donation": "ja",
        "erythrocyte_donation": null
    },
    {
        "id": 9,
        "name": "Institut f\u00c3\u00bcr Transfusionsmedizin M\u00c3\u00bcnchen",
        "address": "Herzog-Heinrich-Str. 4",
        "zip": "80336",
        "city": "M\u00c3\u00bcnchen",
        "lat": "48.133927",
        "lon": "11.5555333",
        "mon": null,
        "tue": null,
        "wed": "13:00-19:00",
        "thu": null,
        "fri": null,
        "sat": null,
        "sun": null,
        "url": "https://www.blutspendedienst.com/kliniken-und-praxen/ansprechpartner-und-kontakt/institut-muenchen",
        "phone": "089 5399-0",
        "whole_blood_donation": "ja",
        "platelet_donation": "ja",
        "plasma_donation": "nein",
        "erythrocyte_donation": null
    },
    {
        "id": 10,
        "name": "Klinikum Gro\u00c3\u0178hadern Spendeeinheit - Zellseparation",
        "address": "Marchioninistra\u00c3\u0178e 15d EG",
        "zip": "81375",
        "city": "M\u00c3\u00bcnchen",
        "lat": "48.1128924",
        "lon": "11.4749887",
        "mon": "8:00 Uhr; 10:15 Uhr; 13:00 Uhr; 15:15 Uhr",
        "tue": "8:00 Uhr; 10:15 Uhr;13:00 Uhr",
        "wed": "8:00 Uhr;10:15 Uhr; 13:00 Uhr",
        "thu": "8:00 Uhr;10:15 Uhr; 13:00 Uhr;15:15 Uhr",
        "fri": "10:15 Uhr",
        "sat": null,
        "sun": null,
        "url": "http://www.klinikum.uni-muenchen.de/Klinik-fuer-Anaesthesiologie/Transfusionsmedizin-Zelltherapeutika-und-Haemostaseologie/de/Thrombozytenspende/Allgemeines_zur_Thrombozytenspende/index.html",
        "phone": "49 89 4400 74408",
        "whole_blood_donation": "nein",
        "platelet_donation": "ja",
        "plasma_donation": "nein",
        "erythrocyte_donation": null
    },
    {
        "id": 11,
        "name": "Institut f\u00c3\u00bcr Transfusionsmedizin N\u00c3\u00bcrnberg",
        "address": "Heimerichstr. 57",
        "zip": "90419",
        "city": "N\u00c3\u00bcrnberg",
        "lat": "49.4639739",
        "lon": "11.0628662",
        "mon": "7:00-15:00",
        "tue": "12:00-18:30",
        "wed": null,
        "thu": "12:00-18:30",
        "fri": "7:00-12:00",
        "sat": null,
        "sun": null,
        "url": "https://www.blutspendedienst.com/kliniken-und-praxen/ansprechpartner-und-kontakt/institut-nuernberg",
        "phone": "0911 3745-530",
        "whole_blood_donation": "nein",
        "platelet_donation": "ja",
        "plasma_donation": "nein",
        "erythrocyte_donation": null
    },
    {
        "id": 148,
        "name": "Institut f\u00fcr Transfusionsmedizin M\u00fcnchen",
        "address": "Herzog-Heinrich-Str. 4",
        "zip": "80336",
        "city": "M\u00fcnchen",
        "lat": "48.133927",
        "lon": "11.5555333",
        "mon": null,
        "tue": null,
        "wed": "13:00-19:00",
        "thu": null,
        "fri": null,
        "sat": null,
        "sun": null,
        "url": "https://www.blutspendedienst.com/kliniken-und-praxen/ansprechpartner-und-kontakt/institut-muenchen",
        "phone": "089 5399-0",
        "whole_blood_donation": "ja",
        "platelet_donation": "ja",
        "plasma_donation": "nein",
        "erythrocyte_donation": null
    },
    {
        "id": 149,
        "name": "Klinikum Gro\u00dfhadern Spendeeinheit - Zellseparation",
        "address": "Marchioninistra\u00dfe 15d EG",
        "zip": "81375",
        "city": "M\u00fcnchen",
        "lat": "48.1128924",
        "lon": "11.4749887",
        "mon": "8:00 Uhr; 10:15 Uhr; 13:00 Uhr; 15:15 Uhr",
        "tue": "8:00 Uhr; 10:15 Uhr;13:00 Uhr",
        "wed": "8:00 Uhr;10:15 Uhr; 13:00 Uhr",
        "thu": "8:00 Uhr;10:15 Uhr; 13:00 Uhr;15:15 Uhr",
        "fri": "10:15 Uhr",
        "sat": null,
        "sun": null,
        "url": "http://www.klinikum.uni-muenchen.de/Klinik-fuer-Anaesthesiologie/Transfusionsmedizin-Zelltherapeutika-und-Haemostaseologie/de/Thrombozytenspende/Allgemeines_zur_Thrombozytenspende/index.html",
        "phone": "49 89 4400 74408",
        "whole_blood_donation": "nein",
        "platelet_donation": "ja",
        "plasma_donation": "nein",
        "erythrocyte_donation": null
    },
    {
        "id": 150,
        "name": "Institut f\u00fcr Transfusionsmedizin N\u00fcrnberg",
        "address": "Heimerichstr. 57",
        "zip": "90419",
        "city": "N\u00fcrnberg",
        "lat": "49.4639739",
        "lon": "11.0628662",
        "mon": "7:00-15:00",
        "tue": "12:00-18:30",
        "wed": null,
        "thu": "12:00-18:30",
        "fri": "7:00-12:00",
        "sat": null,
        "sun": null,
        "url": "https://www.blutspendedienst.com/kliniken-und-praxen/ansprechpartner-und-kontakt/institut-nuernberg",
        "phone": "0911 3745-530",
        "whole_blood_donation": "nein",
        "platelet_donation": "ja",
        "plasma_donation": "nein",
        "erythrocyte_donation": null
    },
    {
        "id": 15,
        "name": "Haema Plasmaspendezentrum F\u00c3\u00bcrth",
        "address": "Hallstr. 9",
        "zip": "90762",
        "city": "F\u00c3\u00bcrth",
        "lat": "49.473735",
        "lon": "10.990102",
        "mon": "10:00-18:30",
        "tue": "9:00-18:30",
        "wed": "13:00-18:00",
        "thu": "10:00-18:30",
        "fri": "9:00-17:30",
        "sat": "9:00-14:00",
        "sun": null,
        "url": "https://www.haema.de/blutspendezentren/bayern/fuerth.html?nomob=1",
        "phone": "0911 2165590",
        "whole_blood_donation": "nein",
        "platelet_donation": "nein",
        "plasma_donation": "ja",
        "erythrocyte_donation": null
    },
    {
        "id": 17,
        "name": "Haema Blutspendezentrum M\u00c3\u00bcnchen",
        "address": "Dachauer Stra\u00c3\u0178e 70",
        "zip": "80335",
        "city": "M\u00c3\u00bcnchen",
        "lat": "48.1491845",
        "lon": "11.5587895",
        "mon": "10:00-17:00",
        "tue": "10:00-19:00",
        "wed": "12:00-19:00",
        "thu": "10:00-17:00",
        "fri": "9:00-18:00",
        "sat": null,
        "sun": null,
        "url": "https://www.haema.de/blut-plasmaspendezentren/bayern/muenchen.html",
        "phone": "089 547265990",
        "whole_blood_donation": "ja",
        "platelet_donation": "nein",
        "plasma_donation": "ja",
        "erythrocyte_donation": null
    },
    {
        "id": 18,
        "name": "Haema Blutspendezentrum N\u00c3\u00bcrnberg",
        "address": "Aufse\u00c3\u0178platz 21",
        "zip": "90459",
        "city": "N\u00c3\u00bcrnberg",
        "lat": "49.4406788",
        "lon": "11.0805152",
        "mon": "11:30-18:30",
        "tue": "9:30-16:30",
        "wed": "11:30-18:30",
        "thu": "9:30-16:30",
        "fri": "11:30-18:30",
        "sat": null,
        "sun": null,
        "url": "https://www.haema.de/blut-plasmaspendezentren/bayern/nuernberg.html?nomob=1",
        "phone": "0911 2342980",
        "whole_blood_donation": "ja",
        "platelet_donation": "nein",
        "plasma_donation": "ja",
        "erythrocyte_donation": null
    },
    {
        "id": 20,
        "name": "Institut f\u00c3\u00bcr Transfusionsmedizin und H\u00c3\u00a4mostaseologie",
        "address": "Stenglinstr. 2",
        "zip": "86156",
        "city": "Augsburg",
        "lat": "48.3849056",
        "lon": "10.838011",
        "mon": null,
        "tue": null,
        "wed": null,
        "thu": null,
        "fri": null,
        "sat": null,
        "sun": null,
        "url": "https://www.blutspendenkannmehr.de/",
        "phone": "0821 400-2698",
        "whole_blood_donation": "ja",
        "platelet_donation": "ja",
        "plasma_donation": "nein",
        "erythrocyte_donation": null
    },
    {
        "id": 21,
        "name": "Institut f\u00c3\u00bcr Transfusionsmedizin Regensburg",
        "address": "Hoher-Kreuz-Weg 7",
        "zip": "93055",
        "city": "Regensburg",
        "lat": "49.0135631",
        "lon": "12.135031",
        "mon": "7:30-15:30",
        "tue": "8:00-15:30",
        "wed": "11:30-17:30",
        "thu": "11:30-17:30",
        "fri": "7:30-12:30",
        "sat": null,
        "sun": null,
        "url": "https://www.blutspendedienst.com/kliniken-und-praxen/ansprechpartner-und-kontakt/institut-regensburg",
        "phone": "0941 796040",
        "whole_blood_donation": "ja (siehe Bemerkung)",
        "platelet_donation": "ja",
        "plasma_donation": "nein",
        "erythrocyte_donation": null
    },
    {
        "id": 22,
        "name": "Plasmazentrum W\u00c3\u00bcrzburg",
        "address": "Virchowstr. 22",
        "zip": "97072",
        "city": "W\u00c3\u00bcrzburg",
        "lat": "49.7829075",
        "lon": "9.934092",
        "mon": "8:30-18:30",
        "tue": "8:30-18:30",
        "wed": "14:00-18:00",
        "thu": "8:30:18:30",
        "fri": "8:30-17:00",
        "sat": "9:00-13:00",
        "sun": null,
        "url": "https://www.plasmazentrum-wuerzburg.de/",
        "phone": "0931 8809840",
        "whole_blood_donation": "nein",
        "platelet_donation": "nein",
        "plasma_donation": "ja",
        "erythrocyte_donation": null
    },
    {
        "id": 23,
        "name": "Institut f\u00c3\u00bcr Klinische Transfusionsmedizin und H\u00c3\u00a4motherapie",
        "address": "Oberd\u00c3\u00bcrrbacher Stra\u00c3\u0178e 6",
        "zip": "97080",
        "city": "W\u00c3\u00bcrzburg",
        "lat": "49.8070151",
        "lon": "9.958693499999999",
        "mon": null,
        "tue": null,
        "wed": null,
        "thu": null,
        "fri": null,
        "sat": null,
        "sun": null,
        "url": "https://www.ukw.de/transfusionsmedizin/schwerpunkte/blutspende/",
        "phone": "0049 931 201-31230",
        "whole_blood_donation": "ja",
        "platelet_donation": "ja",
        "plasma_donation": "ja",
        "erythrocyte_donation": null
    },
    {
        "id": 24,
        "name": "Zentrum f\u00c3\u00bcr Transfusionsmedizin und Zelltherapie Berlin",
        "address": "Schuhmannstr.22(Erdgeschoss)",
        "zip": "10117",
        "city": "Berlin",
        "lat": "52.52353",
        "lon": "13.37773",
        "mon": "10:00-16:30",
        "tue": "11:00-18:30",
        "wed": "11:00-18:30",
        "thu": "10:00-16:30",
        "fri": "07:00-13:15",
        "sat": null,
        "sun": null,
        "url": "https://www.ztb-blutspende.de/",
        "phone": "030 450525167",
        "whole_blood_donation": "ja",
        "platelet_donation": "ja",
        "plasma_donation": "ja",
        "erythrocyte_donation": null
    },
    {
        "id": 13,
        "name": "Haema Plasmaspendezentrum Augsburg",
        "address": "Philippine-Welser-Stra\u00c3\u0178e 8",
        "zip": "86150",
        "city": "Augsburg",
        "lat": "48.3690115",
        "lon": "10.8970714",
        "mon": "11:00-19:00",
        "tue": "9:00-17:00",
        "wed": "9:00-17:00",
        "thu": "11:00-19:00",
        "fri": "9:00-17:00",
        "sat": "9:00-13:00",
        "sun": null,
        "url": "https://www.haema.de/blutspendezentren/bayern/augsburg.html?nomob=1",
        "phone": "0821 2170070",
        "whole_blood_donation": "nein",
        "platelet_donation": "nein",
        "plasma_donation": "ja",
        "erythrocyte_donation": null
    },
    {
        "id": 14,
        "name": "Haema Plasmaspendezentrum Bayreuth",
        "address": "Spinnereistr. 5b",
        "zip": "95445",
        "city": "Bayreuth",
        "lat": "49.9522805",
        "lon": "11.570178",
        "mon": "8:00-18:00",
        "tue": "09:00-18:00",
        "wed": "14:00-19:00",
        "thu": "9:00-18:00",
        "fri": "9:00-17:00",
        "sat": "9:00-13:00",
        "sun": null,
        "url": "https://www.haema.de/blutspendezentren/bayern/bayreuth.html?nomob=1",
        "phone": "0921 4040",
        "whole_blood_donation": "nein",
        "platelet_donation": "nein",
        "plasma_donation": "ja",
        "erythrocyte_donation": null
    },
    {
        "id": 151,
        "name": "Haema Plasmaspendezentrum F\u00fcrth",
        "address": "Hallstr. 9",
        "zip": "90762",
        "city": "F\u00fcrth",
        "lat": "49.473735",
        "lon": "10.990102",
        "mon": "10:00-18:30",
        "tue": "9:00-18:30",
        "wed": "13:00-18:00",
        "thu": "10:00-18:30",
        "fri": "9:00-17:30",
        "sat": "9:00-14:00",
        "sun": null,
        "url": "https://www.haema.de/blutspendezentren/bayern/fuerth.html?nomob=1",
        "phone": "0911 2165590",
        "whole_blood_donation": "nein",
        "platelet_donation": "nein",
        "plasma_donation": "ja",
        "erythrocyte_donation": null
    },
    {
        "id": 16,
        "name": "Haema Plasmaspendezentrum Ingolstadt",
        "address": "Rathausplatz 11",
        "zip": "85049",
        "city": "Ingolstadt",
        "lat": "48.7621317",
        "lon": "11.4257213",
        "mon": "7:30-18:30",
        "tue": "7:30-18:30",
        "wed": "14:00-18:30",
        "thu": "7:30-18:30",
        "fri": "9:00-17:00",
        "sat": "9:00-13:00",
        "sun": null,
        "url": "https://www.haema.de/blutspendezentren/bayern/ingolstadt.html?nomob=1",
        "phone": "0841 934140",
        "whole_blood_donation": "nein",
        "platelet_donation": "nein",
        "plasma_donation": "ja",
        "erythrocyte_donation": null
    },
    {
        "id": 152,
        "name": "Haema Blutspendezentrum M\u00fcnchen",
        "address": "Dachauer Stra\u00dfe 70",
        "zip": "80335",
        "city": "M\u00fcnchen",
        "lat": "48.1491845",
        "lon": "11.5587895",
        "mon": "10:00-17:00",
        "tue": "10:00-19:00",
        "wed": "12:00-19:00",
        "thu": "10:00-17:00",
        "fri": "9:00-18:00",
        "sat": null,
        "sun": null,
        "url": "https://www.haema.de/blut-plasmaspendezentren/bayern/muenchen.html",
        "phone": "089 547265990",
        "whole_blood_donation": "ja",
        "platelet_donation": "nein",
        "plasma_donation": "ja",
        "erythrocyte_donation": null
    },
    {
        "id": 153,
        "name": "Haema Blutspendezentrum N\u00fcrnberg",
        "address": "Aufse\u00dfplatz 21",
        "zip": "90459",
        "city": "N\u00fcrnberg",
        "lat": "49.4406788",
        "lon": "11.0805152",
        "mon": "11:30-18:30",
        "tue": "9:30-16:30",
        "wed": "11:30-18:30",
        "thu": "9:30-16:30",
        "fri": "11:30-18:30",
        "sat": null,
        "sun": null,
        "url": "https://www.haema.de/blut-plasmaspendezentren/bayern/nuernberg.html?nomob=1",
        "phone": "0911 2342980",
        "whole_blood_donation": "ja",
        "platelet_donation": "nein",
        "plasma_donation": "ja",
        "erythrocyte_donation": null
    },
    {
        "id": 19,
        "name": "Haema Blutspendezentrum Regensburg",
        "address": "Hildegard-vonBingen-Str. 1",
        "zip": "93053",
        "city": "Regensburg",
        "lat": "49.0059646",
        "lon": "12.1194544",
        "mon": "8:30-15:00",
        "tue": "12:30-19:00",
        "wed": "12:30-19:00",
        "thu": "12:30-19:00",
        "fri": "10:00-16:30",
        "sat": null,
        "sun": null,
        "url": "https://www.haema.de/blut-plasmaspendezentren/bayern/regensburg.html",
        "phone": "9412808970",
        "whole_blood_donation": "nein",
        "platelet_donation": "nein",
        "plasma_donation": "ja",
        "erythrocyte_donation": null
    },
    {
        "id": 154,
        "name": "Institut f\u00fcr Transfusionsmedizin und H\u00e4mostaseologie",
        "address": "Stenglinstr. 2",
        "zip": "86156",
        "city": "Augsburg",
        "lat": "48.3849056",
        "lon": "10.838011",
        "mon": null,
        "tue": null,
        "wed": null,
        "thu": null,
        "fri": null,
        "sat": null,
        "sun": null,
        "url": "https://www.blutspendenkannmehr.de/",
        "phone": "0821 400-2698",
        "whole_blood_donation": "ja",
        "platelet_donation": "ja",
        "plasma_donation": "nein",
        "erythrocyte_donation": null
    },
    {
        "id": 155,
        "name": "Institut f\u00fcr Transfusionsmedizin Regensburg",
        "address": "Hoher-Kreuz-Weg 7",
        "zip": "93055",
        "city": "Regensburg",
        "lat": "49.0135631",
        "lon": "12.135031",
        "mon": "7:30-15:30",
        "tue": "8:00-15:30",
        "wed": "11:30-17:30",
        "thu": "11:30-17:30",
        "fri": "7:30-12:30",
        "sat": null,
        "sun": null,
        "url": "https://www.blutspendedienst.com/kliniken-und-praxen/ansprechpartner-und-kontakt/institut-regensburg",
        "phone": "0941 796040",
        "whole_blood_donation": "ja (siehe Bemerkung)",
        "platelet_donation": "ja",
        "plasma_donation": "nein",
        "erythrocyte_donation": null
    },
    {
        "id": 34,
        "name": "Institut f\u00c3\u00bcr Transfusionsmedizin Potsdam | Blutspende",
        "address": "Charlottenstr. 72 | Eingang Hebbelstr. 1 | Haus I",
        "zip": "14467",
        "city": "Potsdam",
        "lat": "52.4012755",
        "lon": "13.0655282",
        "mon": "12:00-19:00",
        "tue": null,
        "wed": null,
        "thu": null,
        "fri": "12:00-19:00",
        "sat": null,
        "sun": null,
        "url": "https://www.blutspende-nordost.de/blutspende/termine-zur-blutspende/blutspende-plasmaspende-potsdam.php",
        "phone": "0331 2846\u00e2\u20ac\u201c0",
        "whole_blood_donation": "ja",
        "platelet_donation": "nein",
        "plasma_donation": "nein",
        "erythrocyte_donation": null
    },
    {
        "id": 35,
        "name": "Institut f\u00c3\u00bcr Transfusionsmedizin Potsdam | Plasmaspende",
        "address": "Charlottenstr. 72 | Eingang Hebbelstr. 1 |Haus I",
        "zip": "14467",
        "city": "Potsdam",
        "lat": "52.4012755",
        "lon": "13.0655282",
        "mon": "07:00-13:00",
        "tue": "12:00-18:00",
        "wed": "12:00-18:00",
        "thu": "12:00-18:00",
        "fri": "07:00-13:00",
        "sat": null,
        "sun": null,
        "url": "https://www.blutspende-nordost.de/blutspende/termine-zur-blutspende/blutspende-plasmaspende-potsdam.php",
        "phone": "0331 2846\u00e2\u20ac\u201c0",
        "whole_blood_donation": "nein",
        "platelet_donation": "nein",
        "plasma_donation": "ja",
        "erythrocyte_donation": null
    },
    {
        "id": 36,
        "name": "Institut f\u00c3\u00bcr Transfusionsmedizin Cottbus |Blutspende",
        "address": "Thiemstra\u00c3\u0178e 105",
        "zip": "03050",
        "city": "Cottbus",
        "lat": "51.7417713",
        "lon": "14.3246024",
        "mon": "15:00-19:00",
        "tue": null,
        "wed": "15:00-19:00",
        "thu": null,
        "fri": "07:00-10:00",
        "sat": null,
        "sun": null,
        "url": "https://www.blutspende-nordost.de/blutspende/termine-zur-blutspende/blutspende-plasmaspende-cottbus.php",
        "phone": "0355 4995\u00e2\u20ac\u201c0",
        "whole_blood_donation": "ja",
        "platelet_donation": "nein",
        "plasma_donation": "nein",
        "erythrocyte_donation": null
    },
    {
        "id": 37,
        "name": "Institut f\u00c3\u00bcr Transfusionsmedizin Cottbus | Plasmaspende",
        "address": "Thiemstra\u00c3\u0178e 105",
        "zip": "03050",
        "city": "Cottbus",
        "lat": "51.7417713",
        "lon": "14.3246024",
        "mon": null,
        "tue": "07:00-19:00",
        "wed": "12:00-19:00",
        "thu": "07:00-19:00",
        "fri": "07:00-15:00",
        "sat": null,
        "sun": null,
        "url": "https://www.blutspende-nordost.de/blutspende/termine-zur-blutspende/blutspende-plasmaspende-cottbus.php",
        "phone": "0355 4995\u00e2\u20ac\u201c0",
        "whole_blood_donation": "nein",
        "platelet_donation": "nein",
        "plasma_donation": "ja",
        "erythrocyte_donation": null
    },
    {
        "id": 156,
        "name": "Plasmazentrum W\u00fcrzburg",
        "address": "Virchowstr. 22",
        "zip": "97072",
        "city": "W\u00fcrzburg",
        "lat": "49.7829075",
        "lon": "9.934092",
        "mon": "8:30-18:30",
        "tue": "8:30-18:30",
        "wed": "14:00-18:00",
        "thu": "8:30:18:30",
        "fri": "8:30-17:00",
        "sat": "9:00-13:00",
        "sun": null,
        "url": "https://www.plasmazentrum-wuerzburg.de/",
        "phone": "0931 8809840",
        "whole_blood_donation": "nein",
        "platelet_donation": "nein",
        "plasma_donation": "ja",
        "erythrocyte_donation": null
    },
    {
        "id": 157,
        "name": "Institut f\u00fcr Klinische Transfusionsmedizin und H\u00e4motherapie",
        "address": "Oberd\u00fcrrbacher Stra\u00dfe 6",
        "zip": "97080",
        "city": "W\u00fcrzburg",
        "lat": "49.8070151",
        "lon": "9.958693499999999",
        "mon": null,
        "tue": null,
        "wed": null,
        "thu": null,
        "fri": null,
        "sat": null,
        "sun": null,
        "url": "https://www.ukw.de/transfusionsmedizin/schwerpunkte/blutspende/",
        "phone": "0049 931 201-31230",
        "whole_blood_donation": "ja",
        "platelet_donation": "ja",
        "plasma_donation": "ja",
        "erythrocyte_donation": null
    },
    {
        "id": 158,
        "name": "Zentrum f\u00fcr Transfusionsmedizin und Zelltherapie Berlin",
        "address": "Schuhmannstr.22(Erdgeschoss)",
        "zip": "10117",
        "city": "Berlin",
        "lat": "52.52353",
        "lon": "13.37773",
        "mon": "10:00-16:30",
        "tue": "11:00-18:30",
        "wed": "11:00-18:30",
        "thu": "10:00-16:30",
        "fri": "07:00-13:15",
        "sat": null,
        "sun": null,
        "url": "https://www.ztb-blutspende.de/",
        "phone": "030 450525167",
        "whole_blood_donation": "ja",
        "platelet_donation": "ja",
        "plasma_donation": "ja",
        "erythrocyte_donation": null
    },
    {
        "id": 12,
        "name": "CSL Plasma ",
        "address": "Pfannenschmiedsgasse 5",
        "zip": "90402",
        "city": "N\u00c3\u00bcrnberg",
        "lat": "49.450202",
        "lon": "11.0778966",
        "mon": "08:00-19:00",
        "tue": "08:00-19:00",
        "wed": "08:00-19:00",
        "thu": "08:00-19:00",
        "fri": "08:00-19:00",
        "sat": "08:00-14:00",
        "sun": null,
        "url": "https://www.plasma-spenden.de/",
        "phone": "0302537470",
        "whole_blood_donation": "nein",
        "platelet_donation": "nein",
        "plasma_donation": "ja",
        "erythrocyte_donation": null
    },
    {
        "id": 25,
        "name": "CSL Plasma ",
        "address": "Axel-Springer-Stra\u00c3\u0178e 42",
        "zip": "10969",
        "city": "Berlin",
        "lat": "52.5078137",
        "lon": "13.3996485",
        "mon": "08:00-19:00",
        "tue": "08:00-19:00",
        "wed": "08:00-19:00",
        "thu": "08:00-19:00",
        "fri": "08:00-19:00",
        "sat": "08:00-14:00",
        "sun": null,
        "url": "https://www.plasma-spenden.de/",
        "phone": "0302537470",
        "whole_blood_donation": "nein",
        "platelet_donation": "nein",
        "plasma_donation": "ja",
        "erythrocyte_donation": null
    },
    {
        "id": 26,
        "name": "Haema Blutspendezentrum Berlin-Charlottenburg",
        "address": "Wilmersdorfer Stra\u00c3\u0178e 54",
        "zip": "10627",
        "city": "Berlin",
        "lat": "52.50847",
        "lon": "13.3058401",
        "mon": "8:00 - 19:00 Uhr",
        "tue": "8:00 - 19:00 Uhr",
        "wed": "8:00 - 19:00 Uhr",
        "thu": "8:00 - 19:00 Uhr",
        "fri": "8:00 - 19:00 Uhr",
        "sat": "8:00 - 14:00 Uhr",
        "sun": null,
        "url": "https://www.haema.de/blut-plasmaspendezentren/berlin/berlin-charlottenburg.html",
        "phone": "030 688 383 620",
        "whole_blood_donation": "ja",
        "platelet_donation": "nein",
        "plasma_donation": "ja",
        "erythrocyte_donation": null
    },
    {
        "id": 27,
        "name": "Haema Blutspendezentrum Berlin-Hellersdorf",
        "address": "Peter-Weiss-Gasse 1",
        "zip": "12627",
        "city": "Berlin",
        "lat": "52.53769560000001",
        "lon": "13.6059446",
        "mon": "8:00 - 19:00 Uhr",
        "tue": "8:00 - 19:00 Uhr",
        "wed": "8:00 - 19:00 Uhr",
        "thu": "8:00 - 19:00 Uhr",
        "fri": "8:00 - 19:00 Uhr",
        "sat": "8:00 - 14:00 Uhr",
        "sun": null,
        "url": "https://www.haema.de/blut-plasmaspendezentren/berlin/berlin-hellersdorf.html",
        "phone": "030 992 550",
        "whole_blood_donation": "ja",
        "platelet_donation": "nein",
        "plasma_donation": "ja",
        "erythrocyte_donation": null
    },
    {
        "id": 45,
        "name": "Blutspendedienst Klinikum Bremerhaven Institut f\u00c3\u00bcr Laboratoriums- und Transfusionsmedizin",
        "address": "Postbrookstra\u00c3\u0178e 103",
        "zip": "27574",
        "city": "Bremen",
        "lat": "53.53799",
        "lon": "8.6367",
        "mon": null,
        "tue": null,
        "wed": null,
        "thu": null,
        "fri": null,
        "sat": null,
        "sun": null,
        "url": null,
        "phone": "04 71-2 99 34 50; -51",
        "whole_blood_donation": null,
        "platelet_donation": null,
        "plasma_donation": null,
        "erythrocyte_donation": null
    },
    {
        "id": 46,
        "name": null,
        "address": null,
        "zip": null,
        "city": "Bremen",
        "lat": "53.07929619999999",
        "lon": "8.8016936",
        "mon": null,
        "tue": null,
        "wed": null,
        "thu": null,
        "fri": null,
        "sat": null,
        "sun": null,
        "url": null,
        "phone": "0421/173 64-0",
        "whole_blood_donation": null,
        "platelet_donation": null,
        "plasma_donation": null,
        "erythrocyte_donation": null
    },
    {
        "id": 47,
        "name": "Institut f\u00c3\u00bcr Transfusionsmedizin",
        "address": "Martinistra\u00c3\u0178e 52",
        "zip": "20251",
        "city": "Hamburg",
        "lat": "53.5902421",
        "lon": "9.9785922",
        "mon": "07:00-14:00",
        "tue": "12:00-19:00",
        "wed": "12:00-19:00",
        "thu": "07:00-14:00",
        "fri": "07:00-14:00",
        "sat": null,
        "sun": null,
        "url": "https://www.uke.de/kliniken-institute/institute/transfusionsmedizin/blutspende/index.html",
        "phone": "(0) 40 7410 - 52616",
        "whole_blood_donation": "ja",
        "platelet_donation": "ja",
        "plasma_donation": "ja",
        "erythrocyte_donation": null
    },
    {
        "id": 28,
        "name": "Haema Blutspedezentrum Tegel",
        "address": "Berliner Stra\u00c3\u0178e 25",
        "zip": "13507",
        "city": "Berlin ",
        "lat": "52.58381",
        "lon": "13.2882491",
        "mon": "7:00 - 20:00 ",
        "tue": "7:00 - 20:00",
        "wed": "7:00 - 20:00",
        "thu": "7:00 - 20:00",
        "fri": "7:00 - 20:00",
        "sat": "8:00 - 14:00",
        "sun": null,
        "url": "https://www.haema.de/blut-plasmaspendezentren/berlin/berlin-tegel.html",
        "phone": " 030 437 436 0",
        "whole_blood_donation": "ja",
        "platelet_donation": "nein",
        "plasma_donation": "ja",
        "erythrocyte_donation": null
    },
    {
        "id": 29,
        "name": "Haema Blutspendezentrum Wedding ",
        "address": "Badstra\u00c3\u0178e 4a",
        "zip": "13357",
        "city": "Berlin ",
        "lat": "52.5496484",
        "lon": "13.3881409",
        "mon": "8:00 - 20:00",
        "tue": "8:00 - 20:00",
        "wed": "8:00 - 20:00",
        "thu": "8:00 - 20:00",
        "fri": "8:00 - 20:00",
        "sat": "8:00 - 14:00",
        "sun": null,
        "url": "https://www.haema.de/spendezentren/berlin/berlin-wedding.html?nomob=1",
        "phone": "030 497 689 210",
        "whole_blood_donation": "ja",
        "platelet_donation": "nein",
        "plasma_donation": "ja",
        "erythrocyte_donation": null
    },
    {
        "id": 30,
        "name": "Haema Blutspendezentrum Prenzlauer Berg",
        "address": "Landsberger Allee 117 ",
        "zip": "10407",
        "city": "Berlin",
        "lat": "52.5288656",
        "lon": "13.4560194",
        "mon": "7:00 - 20:00",
        "tue": "7:00 - 20:00",
        "wed": "7:00 - 20:00",
        "thu": "7:00 - 20:00",
        "fri": "7:00 - 20:00",
        "sat": "8:00 - 14:00",
        "sun": null,
        "url": "https://www.haema.de/blut-plasmaspendezentren/berlin/berlin-prenzlauer-berg.html?nomob=1",
        "phone": " 030 457 997",
        "whole_blood_donation": "ja",
        "platelet_donation": "nein",
        "plasma_donation": "ja",
        "erythrocyte_donation": null
    },
    {
        "id": 31,
        "name": "Haema Blutspendezentrum Berlin-Marzahn",
        "address": "Havemannstra\u00c3\u0178e 12b",
        "zip": "12689",
        "city": "Berlin ",
        "lat": "52.5691506",
        "lon": "13.5690429",
        "mon": "7:30 - 19:00 Uhr",
        "tue": "7:30 - 19:00 Uhr",
        "wed": "10:00 - 17:00 Uhr",
        "thu": "7:30 - 19:00 Uhr",
        "fri": "7:30 - 19:00 Uhr",
        "sat": "7:30 - 13:00 Uhr",
        "sun": null,
        "url": "https://www.haema.de/blut-plasmaspendezentren/berlin/berlin-marzahn.html",
        "phone": "030 936 410",
        "whole_blood_donation": "ja",
        "platelet_donation": "nein",
        "plasma_donation": "ja ",
        "erythrocyte_donation": null
    },
    {
        "id": 32,
        "name": "Blutspendezentrum Neuruppin",
        "address": "Fehrbelliner Str. 38 | F-Haus",
        "zip": "16816",
        "city": "Neuruppin",
        "lat": "52.9075403",
        "lon": "12.8001781",
        "mon": null,
        "tue": "10:00-13:00",
        "wed": null,
        "thu": "14:30-18:30",
        "fri": null,
        "sat": null,
        "sun": null,
        "url": "https://www.blutspende-nordost.de/blutspende/termine-zur-blutspende/blutspende-neuruppin.php",
        "phone": "03391 458293",
        "whole_blood_donation": "ja",
        "platelet_donation": "nein",
        "plasma_donation": "nein",
        "erythrocyte_donation": null
    },
    {
        "id": 33,
        "name": "Blutspendezentrum Frankfurt/Oder",
        "address": "Heilbronner Str. 1 | Haus 4",
        "zip": "15230",
        "city": "Frankfurt/Oder",
        "lat": "52.3417838",
        "lon": "14.5421488",
        "mon": null,
        "tue": null,
        "wed": null,
        "thu": null,
        "fri": null,
        "sat": null,
        "sun": null,
        "url": "https://www.blutspende-nordost.de/blutspende/termine-zur-blutspende/blutspende-frankfurt-oder.php",
        "phone": "03355 558746",
        "whole_blood_donation": "ja",
        "platelet_donation": "nein",
        "plasma_donation": "nein",
        "erythrocyte_donation": null
    },
    {
        "id": 53,
        "name": "Blutspende Gie\u00c3\u0178en ",
        "address": "Langhansstra\u00c3\u0178e 7",
        "zip": "35392",
        "city": "Gie\u00c3\u0178en",
        "lat": "50.57429",
        "lon": "8.663",
        "mon": "09:00 - 18:00 Uhr",
        "tue": "09:00 - 18:00 Uhr",
        "wed": "09:00 - 18:00 Uhr",
        "thu": "09:00 - 18:00 Uhr",
        "fri": "09:00 - 12:00 Uhr",
        "sat": "10:00 - 14:00 Uhr",
        "sun": "-",
        "url": "https://www.ukgm.de/ugm_2/deu/ugi_tra/7316.html",
        "phone": "0641/985-41506",
        "whole_blood_donation": "ja",
        "platelet_donation": null,
        "plasma_donation": null,
        "erythrocyte_donation": null
    },
    {
        "id": 54,
        "name": "Campusspende Gie\u00c3\u0178en / Mobile Blutspende",
        "address": "Otto-Behaghel Strasse 27",
        "zip": "35394",
        "city": "Gie\u00c3\u0178en",
        "lat": "50.57650899999999",
        "lon": "8.6908391",
        "mon": null,
        "tue": "11:00 -15:00 Uhr",
        "wed": null,
        "thu": null,
        "fri": null,
        "sat": null,
        "sun": null,
        "url": "https://www.ukgm.de/ugm_2/deu/ugi_tra/7318.html",
        "phone": "0641/985-41506",
        "whole_blood_donation": "ja",
        "platelet_donation": null,
        "plasma_donation": null,
        "erythrocyte_donation": null
    },
    {
        "id": 55,
        "name": "Institut f\u00c3\u00bcr Transfusionsmedizin und Immunh\u00c3\u00a4matologie Frankfurt am Main",
        "address": "Sandhofstra\u00c3\u0178e 1",
        "zip": "60528",
        "city": "Frankfurt",
        "lat": "50.0919967",
        "lon": "8.654623599999999",
        "mon": "-",
        "tue": "11.30 - 18.30 Uhr",
        "wed": "09.00 - 14.00 Uhr",
        "thu": "11.30 - 18.30 Uhr",
        "fri": "09.00 - 14.00 Uhr",
        "sat": "-",
        "sun": "-",
        "url": "https://www.blutspende.de/infos-zur-blutspende/blutspendezentren/institut-frankfurt.php",
        "phone": "069 - 67 82 - 0",
        "whole_blood_donation": "ja",
        "platelet_donation": "ja",
        "plasma_donation": "ja",
        "erythrocyte_donation": null
    },
    {
        "id": 159,
        "name": "Institut f\u00fcr Transfusionsmedizin Potsdam | Blutspende",
        "address": "Charlottenstr. 72 | Eingang Hebbelstr. 1 | Haus I",
        "zip": "14467",
        "city": "Potsdam",
        "lat": "52.4012755",
        "lon": "13.0655282",
        "mon": "12:00-19:00",
        "tue": null,
        "wed": null,
        "thu": null,
        "fri": "12:00-19:00",
        "sat": null,
        "sun": null,
        "url": "https://www.blutspende-nordost.de/blutspende/termine-zur-blutspende/blutspende-plasmaspende-potsdam.php",
        "phone": "0331 2846\u20130",
        "whole_blood_donation": "ja",
        "platelet_donation": "nein",
        "plasma_donation": "nein",
        "erythrocyte_donation": null
    },
    {
        "id": 160,
        "name": "Institut f\u00fcr Transfusionsmedizin Potsdam | Plasmaspende",
        "address": "Charlottenstr. 72 | Eingang Hebbelstr. 1 |Haus I",
        "zip": "14467",
        "city": "Potsdam",
        "lat": "52.4012755",
        "lon": "13.0655282",
        "mon": "07:00-13:00",
        "tue": "12:00-18:00",
        "wed": "12:00-18:00",
        "thu": "12:00-18:00",
        "fri": "07:00-13:00",
        "sat": null,
        "sun": null,
        "url": "https://www.blutspende-nordost.de/blutspende/termine-zur-blutspende/blutspende-plasmaspende-potsdam.php",
        "phone": "0331 2846\u20130",
        "whole_blood_donation": "nein",
        "platelet_donation": "nein",
        "plasma_donation": "ja",
        "erythrocyte_donation": null
    },
    {
        "id": 161,
        "name": "Institut f\u00fcr Transfusionsmedizin Cottbus |Blutspende",
        "address": "Thiemstra\u00dfe 105",
        "zip": "03050",
        "city": "Cottbus",
        "lat": "51.7417713",
        "lon": "14.3246024",
        "mon": "15:00-19:00",
        "tue": null,
        "wed": "15:00-19:00",
        "thu": null,
        "fri": "07:00-10:00",
        "sat": null,
        "sun": null,
        "url": "https://www.blutspende-nordost.de/blutspende/termine-zur-blutspende/blutspende-plasmaspende-cottbus.php",
        "phone": "0355 4995\u20130",
        "whole_blood_donation": "ja",
        "platelet_donation": "nein",
        "plasma_donation": "nein",
        "erythrocyte_donation": null
    },
    {
        "id": 162,
        "name": "Institut f\u00fcr Transfusionsmedizin Cottbus | Plasmaspende",
        "address": "Thiemstra\u00dfe 105",
        "zip": "03050",
        "city": "Cottbus",
        "lat": "51.7417713",
        "lon": "14.3246024",
        "mon": null,
        "tue": "07:00-19:00",
        "wed": "12:00-19:00",
        "thu": "07:00-19:00",
        "fri": "07:00-15:00",
        "sat": null,
        "sun": null,
        "url": "https://www.blutspende-nordost.de/blutspende/termine-zur-blutspende/blutspende-plasmaspende-cottbus.php",
        "phone": "0355 4995\u20130",
        "whole_blood_donation": "nein",
        "platelet_donation": "nein",
        "plasma_donation": "ja",
        "erythrocyte_donation": null
    },
    {
        "id": 60,
        "name": "Institut f\u00c3\u00bcr Transfusionsmedizin und Immunh\u00c3\u00a4matologie Kassel",
        "address": "M\u00c3\u00b6nchebergstra\u00c3\u0178e 57",
        "zip": "34125",
        "city": "Kassel",
        "lat": "51.32918859999999",
        "lon": "9.5103036",
        "mon": "8.00 - 15.00 Uhr",
        "tue": "11.00 - 19.00 Uhr",
        "wed": "8.00 - 15.00 Uhr",
        "thu": "8.00 - 15.00 Uhr",
        "fri": null,
        "sat": "-",
        "sun": "-",
        "url": "https://www.blutspende.de/infos-zur-blutspende/blutspendezentren/institut-kassel.php",
        "phone": "05 61 - 87 93 - 0",
        "whole_blood_donation": "ja",
        "platelet_donation": "nein",
        "plasma_donation": "ja",
        "erythrocyte_donation": null
    },
    {
        "id": 38,
        "name": "Haema Blutspendezentrum Brandenburg an der Havel",
        "address": "Kirchhofstra\u00c3\u0178e 1-2",
        "zip": "14776",
        "city": "Brandenburg an der Havel",
        "lat": "52.40570109999999",
        "lon": "12.5670032",
        "mon": "07:00-20:00",
        "tue": "07:00-20:00",
        "wed": "07:00-20:00",
        "thu": "07:00-20:00",
        "fri": "07:00-20:00",
        "sat": "08:00-14:00",
        "sun": null,
        "url": "https://www.haema.de/spendezentren/brandenburg/brandenburg-an-der-havel.html",
        "phone": "03381 396 753 0",
        "whole_blood_donation": "ja",
        "platelet_donation": "nein",
        "plasma_donation": "ja",
        "erythrocyte_donation": null
    },
    {
        "id": 39,
        "name": "Haema Blutspendezentrum Frankfurt (Oder)",
        "address": "\"Komplex \"\"Der Oderturm\"\" | Karl-Marx-Str. 2\"",
        "zip": "15230",
        "city": "Frankfurt/Oder",
        "lat": "52.3430864",
        "lon": "14.5509592",
        "mon": "07:30-19:00",
        "tue": "07:30-19:00",
        "wed": "07:30-17:00",
        "thu": "07:30-19:00",
        "fri": "07:30-19:00",
        "sat": "08:00-13:00 (14-t\u00e4gig)",
        "sun": null,
        "url": "https://www.haema.de/spendezentren/brandenburg/frankfurt-oder.html",
        "phone": "0335 869 118 20",
        "whole_blood_donation": "ja",
        "platelet_donation": "nein",
        "plasma_donation": "ja",
        "erythrocyte_donation": "ja"
    },
    {
        "id": 40,
        "name": "Haema Blutspendezentrum Potsdam",
        "address": "\"Am \"\"Stern-Center\"\" | Nuthestra\u00c3\u0178e 1\"",
        "zip": "14480",
        "city": "Potsdam",
        "lat": "52.3711652",
        "lon": "13.1341523",
        "mon": "07:30-18:30",
        "tue": "07:30-18:30",
        "wed": "07:30-18:30",
        "thu": "07:30-18:30",
        "fri": "07:30-18:30",
        "sat": "07:30-12:30",
        "sun": null,
        "url": "https://www.haema.de/spendezentren/brandenburg/potsdam.html",
        "phone": "0331 297 041 30",
        "whole_blood_donation": "nein",
        "platelet_donation": "nein",
        "plasma_donation": "ja",
        "erythrocyte_donation": null
    },
    {
        "id": 41,
        "name": "Gesundheitszentrum am Hauptbahnhof | Brandenburg an der Havel",
        "address": "Johann-Carl-Sybel-Str. 1",
        "zip": "14776",
        "city": "Brandenburg an der Havel",
        "lat": "52.4015553",
        "lon": "12.5649344",
        "mon": null,
        "tue": null,
        "wed": null,
        "thu": "14:30-18:30 (14-t\u00e4gig)",
        "fri": null,
        "sat": null,
        "sun": null,
        "url": "https://www.gesundheitszentrum-hauptbahnhof.de/dienstleister/drk-blutspendedienst-nord-ost",
        "phone": "03381/2147114",
        "whole_blood_donation": "ja",
        "platelet_donation": "nein",
        "plasma_donation": "nein",
        "erythrocyte_donation": null
    },
    {
        "id": 42,
        "name": "DRK Blutspende Wittenberge ",
        "address": "Horning 60",
        "zip": "19322",
        "city": "Wittenberge ",
        "lat": null,
        "lon": null,
        "mon": "15:00-19:00",
        "tue": null,
        "wed": "15:00-18:00",
        "thu": null,
        "fri": null,
        "sat": null,
        "sun": null,
        "url": "https://www.blutspende-nordost.de/blutspendetermine/termine?term=+Wittenberge",
        "phone": "0800 11949 11",
        "whole_blood_donation": "Ja",
        "platelet_donation": "nein",
        "plasma_donation": "nein",
        "erythrocyte_donation": "nein"
    },
    {
        "id": 43,
        "name": "CSL Plasma Center",
        "address": "An der Weide 27-29",
        "zip": "20195",
        "city": "Bremen",
        "lat": "53.0806658",
        "lon": "8.816799399999999",
        "mon": "7:30 \u2013 19:00",
        "tue": "7:30 \u2013 19:00",
        "wed": "12:00 \u2013 19:00",
        "thu": "7:30 \u2013 19:00",
        "fri": "7:30 \u2013 19:00",
        "sat": "09:00 \u2013 15:00",
        "sun": null,
        "url": "www.plasma-spenden.de",
        "phone": "0421/173640",
        "whole_blood_donation": null,
        "platelet_donation": null,
        "plasma_donation": "ja",
        "erythrocyte_donation": null
    },
    {
        "id": 44,
        "name": "DRK-Blutspendedienst NSTOB Institut Bremen",
        "address": "Friedrich-Karl-Stra\u00c3\u0178e 22a",
        "zip": "28205",
        "city": "Bremen",
        "lat": "53.0735174",
        "lon": "8.8431698",
        "mon": null,
        "tue": null,
        "wed": null,
        "thu": null,
        "fri": null,
        "sat": null,
        "sun": null,
        "url": null,
        "phone": "0421 43949 - 0",
        "whole_blood_donation": null,
        "platelet_donation": null,
        "plasma_donation": null,
        "erythrocyte_donation": null
    },
    {
        "id": 163,
        "name": "Blutspendedienst Klinikum Bremerhaven Institut f\u00fcr Laboratoriums- und Transfusionsmedizin",
        "address": "Postbrookstra\u00dfe 103",
        "zip": "27574",
        "city": "Bremen",
        "lat": "53.53799",
        "lon": "8.6367",
        "mon": null,
        "tue": null,
        "wed": null,
        "thu": null,
        "fri": null,
        "sat": null,
        "sun": null,
        "url": null,
        "phone": "04 71-2 99 34 50; -51",
        "whole_blood_donation": null,
        "platelet_donation": null,
        "plasma_donation": null,
        "erythrocyte_donation": null
    },
    {
        "id": 191,
        "name": null,
        "address": null,
        "zip": null,
        "city": "Bremen",
        "lat": "53.07929619999999",
        "lon": "8.8016936",
        "mon": null,
        "tue": null,
        "wed": null,
        "thu": null,
        "fri": null,
        "sat": null,
        "sun": null,
        "url": null,
        "phone": "0421/173 64-0",
        "whole_blood_donation": null,
        "platelet_donation": null,
        "plasma_donation": null,
        "erythrocyte_donation": null
    },
    {
        "id": 72,
        "name": "Institut f\u00c3\u00bcr Labormedizin",
        "address": "Sauerbruchstr. 7",
        "zip": "38440",
        "city": "Wolfsburg",
        "lat": "52.413263",
        "lon": "10.7688799",
        "mon": "-",
        "tue": "12:00 - 17:30",
        "wed": "8:30 - 11:30",
        "thu": "12:00 - 17:30",
        "fri": "8:00 - 11:00",
        "sat": "-",
        "sun": null,
        "url": "https://www.klinikum.wolfsburg.de/kliniken/institute-und-zentren/institut-fuer-labormedizin/blutspende/",
        "phone": "05361 80-1727",
        "whole_blood_donation": "ja",
        "platelet_donation": "nein",
        "plasma_donation": "nein",
        "erythrocyte_donation": "nein"
    },
    {
        "id": 79,
        "name": "Uni.Blutspendedienst OWL - Bielefeld Universit\u00c3\u00a4t",
        "address": "Universit\u00c3\u00a4tsstra\u00c3\u0178e",
        "zip": "33615",
        "city": "Bielefeld",
        "lat": "52.0384839",
        "lon": "8.495916200000002",
        "mon": "-",
        "tue": "-",
        "wed": "-",
        "thu": "-",
        "fri": "-",
        "sat": "-",
        "sun": "-",
        "url": "https://www.blutspendedienst-owl.de/oeffnungszeiten/bielefeld-universitaet.html",
        "phone": "0521 160706",
        "whole_blood_donation": "ja",
        "platelet_donation": "nein",
        "plasma_donation": "ja",
        "erythrocyte_donation": null
    },
    {
        "id": 80,
        "name": "Uni.Blutspendedienst OWL - B\u00c3\u00bcnde",
        "address": "Brunnenallee 35 ",
        "zip": "32257",
        "city": "B\u00c3\u00bcnde",
        "lat": "52.1978349",
        "lon": "8.5965726",
        "mon": "-",
        "tue": "12:00-19:00",
        "wed": "12:00-19:00",
        "thu": "-",
        "fri": "-",
        "sat": "-",
        "sun": "-",
        "url": "https://www.blutspendedienst-owl.de/oeffnungszeiten/buende.html",
        "phone": "05223 99 3655",
        "whole_blood_donation": "ja",
        "platelet_donation": "nein",
        "plasma_donation": "nein",
        "erythrocyte_donation": null
    },
    {
        "id": 84,
        "name": "Plasma Service K\u00c3\u00b6ln",
        "address": "Hohenstaufenring 62",
        "zip": "50674",
        "city": "K\u00c3\u00b6ln",
        "lat": "50.9333557",
        "lon": "6.940376",
        "mon": "8:00-20:00",
        "tue": "8:00-20:00",
        "wed": "8:00-20:00",
        "thu": "8:00-20:00",
        "fri": "8:00-20:00",
        "sat": "-",
        "sun": "-",
        "url": "https://www.plasmaservice.de/de/plasmazentren/koeln.cfm",
        "phone": "0221 420365 0",
        "whole_blood_donation": "nein",
        "platelet_donation": "nein",
        "plasma_donation": "ja",
        "erythrocyte_donation": null
    },
    {
        "id": 86,
        "name": "Universit\u00c3\u00a4tsklinikum Bonn Blutspendedienst",
        "address": "Venusberg-Campus 1 | Geb\u00c3\u00a4ude 43",
        "zip": "53127",
        "city": "Bonn",
        "lat": "50.7014825",
        "lon": "7.103076499999999",
        "mon": "7:30-12:00",
        "tue": "10:00-18:00",
        "wed": "10:00-18:00",
        "thu": "10:00-18:00",
        "fri": "7:30-11:00",
        "sat": null,
        "sun": null,
        "url": "https://www.ukbonn.de/42256BC8002AF3E7/direct/blutspende",
        "phone": "0228-287 15174",
        "whole_blood_donation": "ja",
        "platelet_donation": "ja",
        "plasma_donation": "ja",
        "erythrocyte_donation": null
    },
    {
        "id": 88,
        "name": "City-Blut-Spende M\u00c3\u00bcnster",
        "address": "Klarissengasse 9",
        "zip": "48143",
        "city": "M\u00c3\u00bcnster",
        "lat": "51.9598247",
        "lon": "7.628708499999999",
        "mon": "12:00-18:00",
        "tue": "12:00-18:00",
        "wed": "14:00-20:00",
        "thu": "12:00-18:00",
        "fri": "12:00-18:00",
        "sat": "11:00-17:00",
        "sun": "-",
        "url": "https://www.blutspendedienst-west.de/blutspendetermine/spendeorte/2487-blutspende-in-muenster",
        "phone": "0251 7090",
        "whole_blood_donation": "ja",
        "platelet_donation": "nein",
        "plasma_donation": "nein",
        "erythrocyte_donation": null
    },
    {
        "id": 90,
        "name": "Blutspendezentrale Universit\u00c3\u00a4tsklinikum D\u00c3\u00bcsseldorf",
        "address": "Moorenstra\u00c3\u0178e 5",
        "zip": "40225",
        "city": "D\u00c3\u00bcsseldorf",
        "lat": "51.1965517",
        "lon": "6.7900848",
        "mon": "7:15-14:00",
        "tue": "7:15-14:00",
        "wed": "11:30-19:00",
        "thu": "11:30-19:00",
        "fri": "7:15-14:00",
        "sat": "7:15-12:00",
        "sun": "-",
        "url": "https://www.uniklinik-duesseldorf.de/patienten-besucher/klinikeninstitutezentren/institut-fuer-transplantationsdiagnostik-und-zelltherapeutika-itz/blutspendezentrale",
        "phone": "0211 81 19967",
        "whole_blood_donation": "ja",
        "platelet_donation": "ja",
        "plasma_donation": "nein",
        "erythrocyte_donation": null
    },
    {
        "id": 63,
        "name": "Haema Blutspendezentrum",
        "address": "Deutsche-Med-Platz 2",
        "zip": "18057",
        "city": "Rostock",
        "lat": "54.0862",
        "lon": "12.12517",
        "mon": "10:00-18:00",
        "tue": "10:00-18:00",
        "wed": "10:00-18:00",
        "thu": "10:00-18:00",
        "fri": "10:00-18:00",
        "sat": null,
        "sun": null,
        "url": "https://www.haema.de/spendezentren/mecklenburg-vorpommern/rostock.html",
        "phone": null,
        "whole_blood_donation": "Ja",
        "platelet_donation": "Nein",
        "plasma_donation": "Ja",
        "erythrocyte_donation": null
    },
    {
        "id": 64,
        "name": "Haema Blutspendezentrum",
        "address": "Friedrichstra\u00c3\u0178e 18",
        "zip": "19055",
        "city": "Schwerin",
        "lat": "53.63032980000001",
        "lon": "11.4150778",
        "mon": "10:00-18:00",
        "tue": "10:00-18:00",
        "wed": "10:00-18:00",
        "thu": "10:00-18:00",
        "fri": "10:00-18:00",
        "sat": null,
        "sun": null,
        "url": "https://www.haema.de/spendezentren/mecklenburg-vorpommern/rostock.html",
        "phone": null,
        "whole_blood_donation": "Ja",
        "platelet_donation": "Nein",
        "plasma_donation": "Ja",
        "erythrocyte_donation": null
    },
    {
        "id": 65,
        "name": "Blutspendezentrum Stralsund",
        "address": "\u00c3\u201erztehaus | Heinrich-Mann-Stra\u00c3\u0178e 64",
        "zip": "18435",
        "city": "Stralsund",
        "lat": "54.3353",
        "lon": "13.07457",
        "mon": null,
        "tue": "13:00-19:00",
        "wed": null,
        "thu": null,
        "fri": null,
        "sat": null,
        "sun": null,
        "url": "https://www.blutspendemv.de/startseite/startseite.php",
        "phone": "38312040490",
        "whole_blood_donation": "ja",
        "platelet_donation": "nein",
        "plasma_donation": "ja",
        "erythrocyte_donation": null
    },
    {
        "id": 66,
        "name": "Blutspendezentrum Neubrandenburg",
        "address": "An der Marienkirche 4",
        "zip": "17033",
        "city": "Neubrandenburg ",
        "lat": "53.5553012",
        "lon": "13.2595927",
        "mon": "8:00-19:00",
        "tue": "8:00-19:00",
        "wed": "8:00-19:00",
        "thu": "8:00-19:00",
        "fri": "8:00-19:00",
        "sat": null,
        "sun": null,
        "url": "https://www.blutspendemv.de/startseite/startseite.php",
        "phone": "0359 5707017",
        "whole_blood_donation": "ja",
        "platelet_donation": "nein",
        "plasma_donation": "Ja",
        "erythrocyte_donation": null
    },
    {
        "id": 67,
        "name": "Blut-und Plasmaspende im Uniklinikum Greifswald",
        "address": "Ferdinand-Sauerbruch-Str",
        "zip": "17475",
        "city": "Greifswald",
        "lat": "54.0864743",
        "lon": "13.4079037",
        "mon": "9:00-18:00",
        "tue": "9:00-18:00",
        "wed": "9:00-18:00",
        "thu": "9:00-18:00",
        "fri": "7:00-16:00",
        "sat": "8:00-12:00",
        "sun": null,
        "url": "http://www2.medizin.uni-greifswald.de/transfus/index.php?id=469/index.html",
        "phone": "3834865478",
        "whole_blood_donation": "Ja",
        "platelet_donation": "Ja",
        "plasma_donation": "ja",
        "erythrocyte_donation": null
    },
    {
        "id": 68,
        "name": "Medizinische Hochschule Hannover Blutspendedienst",
        "address": "Carl-Neuberg-Stra\u00c3\u0178e 1",
        "zip": "30625",
        "city": "Hannover",
        "lat": "52.3834749",
        "lon": "9.804799899999999",
        "mon": "-",
        "tue": "-",
        "wed": "-",
        "thu": "-",
        "fri": "7:00-9:00",
        "sat": "-",
        "sun": "-",
        "url": "https://www.mhh.de/institute-zentren-forschungseinrichtungen/institut-fuer-transfusionsmedizin-und-transplantat-engineering/blutspende",
        "phone": "0049 800 532 5325",
        "whole_blood_donation": "ja",
        "platelet_donation": "ja",
        "plasma_donation": "nein",
        "erythrocyte_donation": null
    },
    {
        "id": 69,
        "name": "Plasma Service Hannover",
        "address": "Schillerstra\u00c3\u0178e 23",
        "zip": "30159",
        "city": "Hannover",
        "lat": "52.37569509999999",
        "lon": "9.7379325",
        "mon": "11:00-19:00",
        "tue": "11:00-19:00",
        "wed": "9:00-17:00",
        "thu": "11:00-19:00",
        "fri": "11:00-19:00",
        "sat": "-",
        "sun": "-",
        "url": "https://www.plasmaservice.de/de/plasmazentren/hannover.cfm",
        "phone": "0511 3748320",
        "whole_blood_donation": "nein",
        "platelet_donation": "nein",
        "plasma_donation": "ja",
        "erythrocyte_donation": "nein"
    },
    {
        "id": 70,
        "name": "DRK Blutspendedienst Oldenburg",
        "address": "Brandemburger Stra\u00c3\u0178e 21",
        "zip": "26133",
        "city": "Oldenburg",
        "lat": "53.11143",
        "lon": "8.21952",
        "mon": "13:00 - 17:00",
        "tue": null,
        "wed": "14:00- 18:00",
        "thu": null,
        "fri": null,
        "sat": "10:30-14:00",
        "sun": null,
        "url": "https://www.drk-blutspende.de/blutspendetermine/termine?term=26129%20Oldenburg",
        "phone": "441944010",
        "whole_blood_donation": "ja",
        "platelet_donation": "ja",
        "plasma_donation": "nein",
        "erythrocyte_donation": null
    },
    {
        "id": 99,
        "name": "Zentrum f\u00c3\u00bcr Transfusionsmedizin",
        "address": "Burgweg 5-7",
        "zip": "55543",
        "city": "Bad Kreuznach",
        "lat": "49.82444",
        "lon": "7.848199999999999",
        "mon": "08:00 - 14:00 Uhr",
        "tue": "15:00 - 19:00 Uhr",
        "wed": "08:00 - 15:00 Uhr",
        "thu": "11:00 - 18:00 Uhr",
        "fri": "08:00 - 14:00 Uhr",
        "sat": null,
        "sun": null,
        "url": "https://www.blutspendedienst-west.de/blutspendedienst/standorte/Bad-Kreuznach",
        "phone": "0671 253 0",
        "whole_blood_donation": "ja",
        "platelet_donation": "nein",
        "plasma_donation": "nein",
        "erythrocyte_donation": null
    },
    {
        "id": 71,
        "name": "DRK Zentrum Uelzen ",
        "address": "Ripdorfer Stra\u00c3\u00a9 21",
        "zip": "29525",
        "city": "Uelzen",
        "lat": null,
        "lon": null,
        "mon": null,
        "tue": "16:00-20:00",
        "wed": null,
        "thu": null,
        "fri": null,
        "sat": null,
        "sun": null,
        "url": "https://www.drk-blutspende.de/blutspendetermine/termine?term=29525+Uelzen",
        "phone": null,
        "whole_blood_donation": "ja",
        "platelet_donation": "nein ",
        "plasma_donation": "nein",
        "erythrocyte_donation": "nein "
    },
    {
        "id": 170,
        "name": "Institut f\u00fcr Labormedizin",
        "address": "Sauerbruchstr. 7",
        "zip": "38440",
        "city": "Wolfsburg",
        "lat": "52.413263",
        "lon": "10.7688799",
        "mon": "-",
        "tue": "12:00 - 17:30",
        "wed": "8:30 - 11:30",
        "thu": "12:00 - 17:30",
        "fri": "8:00 - 11:00",
        "sat": "-",
        "sun": null,
        "url": "https://www.klinikum.wolfsburg.de/kliniken/institute-und-zentren/institut-fuer-labormedizin/blutspende/",
        "phone": "05361 80-1727",
        "whole_blood_donation": "ja",
        "platelet_donation": "nein",
        "plasma_donation": "nein",
        "erythrocyte_donation": "nein"
    },
    {
        "id": 73,
        "name": "Klinikum Bremerhaven ",
        "address": "Postbrookstra\u00c3\u0178e 103",
        "zip": "75742",
        "city": "Bremerhaven ",
        "lat": "53.53799",
        "lon": "8.6367",
        "mon": null,
        "tue": null,
        "wed": null,
        "thu": null,
        "fri": null,
        "sat": null,
        "sun": null,
        "url": "https://www.klinikum-bremerhaven.de/blutspendedienst",
        "phone": "0471 299-3451",
        "whole_blood_donation": "ja",
        "platelet_donation": "nin",
        "plasma_donation": "nein",
        "erythrocyte_donation": "nein"
    },
    {
        "id": 103,
        "name": "Institut f\u00c3\u00bcr Transfusionsmedizin",
        "address": "Johannisallee 32 | Haus 8",
        "zip": "4103",
        "city": "Leipzig",
        "lat": "51.3293019",
        "lon": "12.3902125",
        "mon": "08:00-19:00",
        "tue": "11:30-19:00",
        "wed": "11:30-19:00",
        "thu": "11:30-19:00",
        "fri": "08:00-19:00",
        "sat": "jeden letztenSA im Monat von 10-14 Uhr",
        "sun": null,
        "url": "\"https://blutbank.uniklinikum-leipzig.de/blutbank2012.site",
        "phone": "standorte.html\"",
        "whole_blood_donation": "info@blutbank-leipzig.de",
        "platelet_donation": "03 41 / 97 - 2 53 93",
        "plasma_donation": "ja",
        "erythrocyte_donation": "ja "
    },
    {
        "id": 104,
        "name": "Institut f\u00c3\u00bcr Transfusionsmedizin ",
        "address": "Blasewitzer Str. 68/70",
        "zip": "1307",
        "city": "Dresden",
        "lat": "51.05291",
        "lon": "13.78018",
        "mon": "06.30 \u00e2\u20ac\u201c 19.00",
        "tue": "12.00 \u00e2\u20ac\u201c 19.00",
        "wed": "12.00 \u00e2\u20ac\u201c 19.00",
        "thu": "12.00 \u00e2\u20ac\u201c 19.00",
        "fri": "06.30 \u00e2\u20ac\u201c 19.00",
        "sat": "Nein",
        "sun": null,
        "url": "https://www.blutspende-nordost.de/blutspende/termine-zur-blutspende/blutspende-dresden.php",
        "phone": "0351 44508-0",
        "whole_blood_donation": "ja",
        "platelet_donation": "nein",
        "plasma_donation": "ja",
        "erythrocyte_donation": null
    },
    {
        "id": 105,
        "name": "Institut f\u00c3\u00bcr Transfusionsmedizin ",
        "address": "Zeisigwaldstra\u00c3\u0178e 103",
        "zip": "9130",
        "city": "Chemnitz",
        "lat": "50.8407341",
        "lon": "12.962506",
        "mon": "08.00 \u00e2\u20ac\u201c 12.00 Uhr und",
        "tue": "08.00 \u00e2\u20ac\u201c 12.00 Uhr und",
        "wed": "08.00 \u00e2\u20ac\u201c 12.00 Uhr und",
        "thu": "08.00 \u00e2\u20ac\u201c 12.00 Uhr und",
        "fri": "08.00 \u00e2\u20ac\u201c 12.00",
        "sat": null,
        "sun": null,
        "url": "https://www.blutspende-nordost.de/blutspende/termine-zur-blutspende/blutspende-plasmaspende-chemnitz.php",
        "phone": "0371 43220\u00e2\u20ac\u201c0",
        "whole_blood_donation": "ja",
        "platelet_donation": "nein",
        "plasma_donation": "ja",
        "erythrocyte_donation": null
    },
    {
        "id": 74,
        "name": "DRK Wilhelmshaven",
        "address": "G\u00c3\u00bcterstra\u00c3\u0178e 30",
        "zip": "26382",
        "city": "Wilhelmshaven",
        "lat": "53.5217942",
        "lon": "8.0805057",
        "mon": "?",
        "tue": "?",
        "wed": "?",
        "thu": "?",
        "fri": "?",
        "sat": null,
        "sun": null,
        "url": "https://www.drk-whv.de/spenden/spalte-5/blutspende/blutspende.html",
        "phone": "04421 9102-0",
        "whole_blood_donation": "ja",
        "platelet_donation": "nein",
        "plasma_donation": "nein",
        "erythrocyte_donation": "nein"
    },
    {
        "id": 58,
        "name": "Blut- und Plasmaspendezentrum",
        "address": "Bahnhofstr. 96 \u00e2\u20ac\u201c 98",
        "zip": "35390",
        "city": "Gie\u00c3\u0178en",
        "lat": "50.57987",
        "lon": "8.663711600000001",
        "mon": "09:00-19:00",
        "tue": "09:00-19:00",
        "wed": "09:00-19:00",
        "thu": "09:00-19:00",
        "fri": "09:00-19:00",
        "sat": "09:00-16:00",
        "sun": null,
        "url": "https://www.tmd-blutspende.de/standorte/osnabrueck/",
        "phone": "0541 33587410",
        "whole_blood_donation": "ja",
        "platelet_donation": "nein",
        "plasma_donation": "ja",
        "erythrocyte_donation": "nein"
    },
    {
        "id": 59,
        "name": "Blut- und Plasmaspendezentrum",
        "address": "Untere K\u00c3\u00b6nigsstra\u00c3\u0178e 86",
        "zip": "34117",
        "city": "Kassel ",
        "lat": "51.3204528",
        "lon": "9.5025391",
        "mon": "09:00-19:00",
        "tue": "09:00-19:00",
        "wed": "09:00-19:00",
        "thu": "09:00-19:00",
        "fri": "09:00-19:00",
        "sat": "09:00-16:00",
        "sun": null,
        "url": "https://www.tmd-blutspende.de/standorte/osnabrueck/",
        "phone": "0541 33587410",
        "whole_blood_donation": "ja",
        "platelet_donation": "nein",
        "plasma_donation": "ja",
        "erythrocyte_donation": "nein"
    },
    {
        "id": 75,
        "name": "Blut- und Plasmaspendezentrum",
        "address": "Kollegienwall 3-4",
        "zip": "49074",
        "city": "Osnabr\u00c3\u00bcck",
        "lat": "52.2728438",
        "lon": "8.0513704",
        "mon": "09:00-19:00",
        "tue": "09:00-19:00",
        "wed": "09:00-19:00",
        "thu": "09:00-19:00",
        "fri": "09:00-19:00",
        "sat": "09:00-16:00",
        "sun": null,
        "url": "https://www.tmd-blutspende.de/standorte/osnabrueck/",
        "phone": "0541 33587410",
        "whole_blood_donation": "ja",
        "platelet_donation": "nein",
        "plasma_donation": "ja",
        "erythrocyte_donation": "nein"
    },
    {
        "id": 57,
        "name": "Blut- und Plasmaspendezentrum",
        "address": null,
        "zip": "64283",
        "city": "Darmstadt",
        "lat": "49.8695282",
        "lon": "8.6506852",
        "mon": "09:00-19:00",
        "tue": "09:00-19:00",
        "wed": "09:00-19:00",
        "thu": "09:00-19:00",
        "fri": "09:00-19:00",
        "sat": "09:00-16:00",
        "sun": null,
        "url": "https://www.tmd-blutspende.de/standorte/osnabrueck/",
        "phone": "0541 33587410",
        "whole_blood_donation": "ja",
        "platelet_donation": "nein",
        "plasma_donation": "ja",
        "erythrocyte_donation": "nein"
    },
    {
        "id": 76,
        "name": "Blutspende am Campus",
        "address": "Weender Landstr. 1",
        "zip": "37073",
        "city": "G\u00c3\u00b6ttingen",
        "lat": "51.5377786",
        "lon": "9.933575",
        "mon": "08:00-14:00",
        "tue": "12:00-18:00",
        "wed": "12:00-18:00",
        "thu": "12:00-18:00",
        "fri": "12:00-18:00",
        "sat": "08:00-14:00",
        "sun": null,
        "url": "http://blutspende-goettingen.de/zeiten.html",
        "phone": "05 51 / 39 - 17 68 99",
        "whole_blood_donation": "ja",
        "platelet_donation": "ja",
        "plasma_donation": "ja",
        "erythrocyte_donation": "?"
    },
    {
        "id": 111,
        "name": "Haema Blutspendezentrum G\u00c3\u00b6rlitz",
        "address": "CityCenter Frauentor | An der Frauenkirche 12",
        "zip": "2826",
        "city": "G\u00c3\u00b6rlitz",
        "lat": "51.15170999999999",
        "lon": "14.987955",
        "mon": "7:00 - 18:30 Uhr",
        "tue": "7:00 - 18:30 Uhr",
        "wed": "7:00 - 18:30 Uhr",
        "thu": "7:00 - 18:30 Uhr",
        "fri": "7:00 - 18:30 Uhr",
        "sat": "7:00 - 12:00 Uhr",
        "sun": null,
        "url": "https://www.haema.de/spendezentren/sachsen/goerlitz.html",
        "phone": "03581 877 780",
        "whole_blood_donation": "ja",
        "platelet_donation": "nein",
        "plasma_donation": "ja",
        "erythrocyte_donation": "ja"
    },
    {
        "id": 77,
        "name": "DRK-Blutspendezentrum Essen",
        "address": "Kettwiger Str. 5",
        "zip": "45127",
        "city": "Essen",
        "lat": "51.4535778",
        "lon": "7.0125308",
        "mon": "11:00-18:00",
        "tue": "11:00-18:00",
        "wed": "11:00-18:00",
        "thu": "11:00-18:00",
        "fri": "10:30-18:00",
        "sat": "11:00-18:00",
        "sun": "-",
        "url": "https://www.blutspendedienst-west.de/blutspendetermine/spendeorte/1524-blutspende-in-essen",
        "phone": "0201 543 793 47",
        "whole_blood_donation": "ja",
        "platelet_donation": "nein",
        "plasma_donation": "nein",
        "erythrocyte_donation": null
    },
    {
        "id": 78,
        "name": "Uni.Blutspendedienst OWL - Bielefeld Stadt",
        "address": "Obertorwall 22",
        "zip": "33602",
        "city": "Bielefeld",
        "lat": "52.0230697",
        "lon": "8.531171800000001",
        "mon": "9:30-17:00",
        "tue": "11:30-19:00",
        "wed": "11:30-19:00",
        "thu": "11:30-19:00",
        "fri": "10:30-18:00",
        "sat": "-",
        "sun": "-",
        "url": "https://www.blutspendedienst-owl.de/oeffnungszeiten/bielefeld-stadt.html",
        "phone": "0800 4440777",
        "whole_blood_donation": "ja",
        "platelet_donation": "nein",
        "plasma_donation": "ja",
        "erythrocyte_donation": null
    },
    {
        "id": 171,
        "name": "Uni.Blutspendedienst OWL - Bielefeld Universit\u00e4t",
        "address": "Universit\u00e4tsstra\u00dfe",
        "zip": "33615",
        "city": "Bielefeld",
        "lat": "52.0384839",
        "lon": "8.495916200000002",
        "mon": "-",
        "tue": "-",
        "wed": "-",
        "thu": "-",
        "fri": "-",
        "sat": "-",
        "sun": "-",
        "url": "https://www.blutspendedienst-owl.de/oeffnungszeiten/bielefeld-universitaet.html",
        "phone": "0521 160706",
        "whole_blood_donation": "ja",
        "platelet_donation": "nein",
        "plasma_donation": "ja",
        "erythrocyte_donation": null
    },
    {
        "id": 172,
        "name": "Uni.Blutspendedienst OWL - B\u00fcnde",
        "address": "Brunnenallee 35 ",
        "zip": "32257",
        "city": "B\u00fcnde",
        "lat": "52.1978349",
        "lon": "8.5965726",
        "mon": "-",
        "tue": "12:00-19:00",
        "wed": "12:00-19:00",
        "thu": "-",
        "fri": "-",
        "sat": "-",
        "sun": "-",
        "url": "https://www.blutspendedienst-owl.de/oeffnungszeiten/buende.html",
        "phone": "05223 99 3655",
        "whole_blood_donation": "ja",
        "platelet_donation": "nein",
        "plasma_donation": "nein",
        "erythrocyte_donation": null
    },
    {
        "id": 81,
        "name": "Uni.Blutspendedienst OWL - Klinikum Kreis Herford",
        "address": "Schwarzenmoorstra\u00c3\u0178e 70",
        "zip": "32049",
        "city": "Herford",
        "lat": "52.1261728",
        "lon": "8.7001423",
        "mon": "13:00-19:00",
        "tue": "-",
        "wed": "-",
        "thu": "13:00-19:00",
        "fri": "-",
        "sat": "-",
        "sun": "-",
        "url": "https://www.blutspendedienst-owl.de/oeffnungszeiten/klinikum-kreis-herford.html",
        "phone": "05221 942449",
        "whole_blood_donation": "ja",
        "platelet_donation": "nein",
        "plasma_donation": "nein",
        "erythrocyte_donation": null
    },
    {
        "id": 82,
        "name": "Uni.Blutspendedienst OWL - Bad Oeynhausen (HDZ)",
        "address": "Georgstra\u00c3\u0178e 11",
        "zip": "32545",
        "city": "Bad Oeyenhausen",
        "lat": "52.1915868",
        "lon": "8.794255699999999",
        "mon": "7:30-18:00",
        "tue": "10:00-19:00",
        "wed": "10:00-19:00",
        "thu": "7:30-18:00",
        "fri": "7:30-18:00",
        "sat": "-",
        "sun": "-",
        "url": "https://www.blutspendedienst-owl.de/oeffnungszeiten/bad-oeynhausen-im-hdz.html",
        "phone": "05731 97 1197",
        "whole_blood_donation": "ja",
        "platelet_donation": "ja",
        "plasma_donation": "ja",
        "erythrocyte_donation": null
    },
    {
        "id": 118,
        "name": null,
        "address": null,
        "zip": null,
        "city": null,
        "lat": null,
        "lon": null,
        "mon": null,
        "tue": null,
        "wed": null,
        "thu": null,
        "fri": null,
        "sat": null,
        "sun": null,
        "url": null,
        "phone": null,
        "whole_blood_donation": null,
        "platelet_donation": null,
        "plasma_donation": null,
        "erythrocyte_donation": null
    },
    {
        "id": 119,
        "name": null,
        "address": null,
        "zip": null,
        "city": null,
        "lat": null,
        "lon": null,
        "mon": null,
        "tue": null,
        "wed": null,
        "thu": null,
        "fri": null,
        "sat": null,
        "sun": null,
        "url": null,
        "phone": null,
        "whole_blood_donation": null,
        "platelet_donation": null,
        "plasma_donation": null,
        "erythrocyte_donation": null
    },
    {
        "id": 120,
        "name": null,
        "address": null,
        "zip": null,
        "city": null,
        "lat": null,
        "lon": null,
        "mon": null,
        "tue": null,
        "wed": null,
        "thu": null,
        "fri": null,
        "sat": null,
        "sun": null,
        "url": null,
        "phone": null,
        "whole_blood_donation": null,
        "platelet_donation": null,
        "plasma_donation": null,
        "erythrocyte_donation": null
    },
    {
        "id": 121,
        "name": null,
        "address": null,
        "zip": null,
        "city": null,
        "lat": null,
        "lon": null,
        "mon": null,
        "tue": null,
        "wed": null,
        "thu": null,
        "fri": null,
        "sat": null,
        "sun": null,
        "url": null,
        "phone": null,
        "whole_blood_donation": null,
        "platelet_donation": null,
        "plasma_donation": null,
        "erythrocyte_donation": null
    },
    {
        "id": 83,
        "name": "Uni.Blutspendedienst OWL - Minden",
        "address": "Am Rathaus 2",
        "zip": "32423",
        "city": "Minden",
        "lat": "52.2896989",
        "lon": "8.9186977",
        "mon": "12:00-19:00",
        "tue": "12:00-19:00",
        "wed": "12:00-19:00",
        "thu": "12:00-19:00",
        "fri": "-",
        "sat": "-",
        "sun": "-",
        "url": "https://www.blutspendedienst-owl.de/oeffnungszeiten/minden.html",
        "phone": "0571 38516 90",
        "whole_blood_donation": "ja",
        "platelet_donation": "nein",
        "plasma_donation": "nein",
        "erythrocyte_donation": null
    },
    {
        "id": 123,
        "name": "Institut f\u00c3\u00bcr Transfusionsmedizin und Immunh\u00c3\u00a4matologie",
        "address": "Leipziger Str. 44",
        "zip": "39120",
        "city": "Magdeburg",
        "lat": "52.1026163",
        "lon": "11.6158495",
        "mon": "07.00-12.00",
        "tue": "11.00-19.00",
        "wed": "11.00-19.00",
        "thu": "07.00-12.00",
        "fri": "07.00-15.00",
        "sat": null,
        "sun": null,
        "url": "http://www.itib.ovgu.de/",
        "phone": "0391-67-13939",
        "whole_blood_donation": "ja",
        "platelet_donation": "ja",
        "plasma_donation": "ja",
        "erythrocyte_donation": null
    },
    {
        "id": 173,
        "name": "Plasma Service K\u00f6ln",
        "address": "Hohenstaufenring 62",
        "zip": "50674",
        "city": "K\u00f6ln",
        "lat": "50.9333557",
        "lon": "6.940376",
        "mon": "8:00-20:00",
        "tue": "8:00-20:00",
        "wed": "8:00-20:00",
        "thu": "8:00-20:00",
        "fri": "8:00-20:00",
        "sat": "-",
        "sun": "-",
        "url": "https://www.plasmaservice.de/de/plasmazentren/koeln.cfm",
        "phone": "0221 420365 0",
        "whole_blood_donation": "nein",
        "platelet_donation": "nein",
        "plasma_donation": "ja",
        "erythrocyte_donation": null
    },
    {
        "id": 85,
        "name": "Plasmaspende Aachen",
        "address": "Peterstra\u00c3\u0178e 20-24",
        "zip": "52062",
        "city": "Aachen",
        "lat": "50.7756067",
        "lon": "6.0890257",
        "mon": "12:00-20:00",
        "tue": "12:00-20:00",
        "wed": "12:00-20:00",
        "thu": "12:00-20:00",
        "fri": "12:00-20:00",
        "sat": "9:00-15:00",
        "sun": "-",
        "url": "https://www.octapharmaplasma.de/standorte/aachen",
        "phone": "0241 4001550",
        "whole_blood_donation": "nein",
        "platelet_donation": "nein",
        "plasma_donation": "ja",
        "erythrocyte_donation": null
    },
    {
        "id": 174,
        "name": "Universit\u00e4tsklinikum Bonn Blutspendedienst",
        "address": "Venusberg-Campus 1 | Geb\u00e4ude 43",
        "zip": "53127",
        "city": "Bonn",
        "lat": "50.7014825",
        "lon": "7.103076499999999",
        "mon": "7:30-12:00",
        "tue": "10:00-18:00",
        "wed": "10:00-18:00",
        "thu": "10:00-18:00",
        "fri": "7:30-11:00",
        "sat": null,
        "sun": null,
        "url": "https://www.ukbonn.de/42256BC8002AF3E7/direct/blutspende",
        "phone": "0228-287 15174",
        "whole_blood_donation": "ja",
        "platelet_donation": "ja",
        "plasma_donation": "ja",
        "erythrocyte_donation": null
    },
    {
        "id": 87,
        "name": "Haema Blutspendezentrum Bonn",
        "address": "Poststra\u00c3\u0178e 19",
        "zip": "5311",
        "city": "Bonn",
        "lat": "50.7334746",
        "lon": "7.097727900000001",
        "mon": "10:00-17:00",
        "tue": "10:00-17:00",
        "wed": "10:00-17:00",
        "thu": "10:00-17:00",
        "fri": "10:00-17:00",
        "sat": "-",
        "sun": "-",
        "url": "https://www.haema.de/spendezentren/nordrhein-westfalen/bonn.html?nomob=1",
        "phone": "0228 580 974 0",
        "whole_blood_donation": "ja",
        "platelet_donation": "nein",
        "plasma_donation": "ja",
        "erythrocyte_donation": null
    },
    {
        "id": 89,
        "name": "Blutspendedo Dortmund",
        "address": "Alexanderstra\u00c3\u0178e 6-10",
        "zip": "44137",
        "city": "Dortmund",
        "lat": "51.5085139",
        "lon": "7.45475",
        "mon": "8:00-15:00",
        "tue": "8:00-19:00",
        "wed": "8:00-19:00",
        "thu": "8:00-19:00",
        "fri": "8:00-15:00",
        "sat": "8:00-14:00",
        "sun": "-",
        "url": "https://www.blutspendedo.de/",
        "phone": "0231 953 19999",
        "whole_blood_donation": "ja",
        "platelet_donation": "nein",
        "plasma_donation": "nein",
        "erythrocyte_donation": null
    },
    {
        "id": 176,
        "name": "Blutspendezentrale Universit\u00e4tsklinikum D\u00fcsseldorf",
        "address": "Moorenstra\u00dfe 5",
        "zip": "40225",
        "city": "D\u00fcsseldorf",
        "lat": "51.1965517",
        "lon": "6.7900848",
        "mon": "7:15-14:00",
        "tue": "7:15-14:00",
        "wed": "11:30-19:00",
        "thu": "11:30-19:00",
        "fri": "7:15-14:00",
        "sat": "7:15-12:00",
        "sun": "-",
        "url": "https://www.uniklinik-duesseldorf.de/patienten-besucher/klinikeninstitutezentren/institut-fuer-transplantationsdiagnostik-und-zelltherapeutika-itz/blutspendezentrale",
        "phone": "0211 81 19967",
        "whole_blood_donation": "ja",
        "platelet_donation": "ja",
        "plasma_donation": "nein",
        "erythrocyte_donation": null
    },
    {
        "id": 91,
        "name": "Haema Blutspendezentrum Hamm",
        "address": "Westring 2",
        "zip": "59065",
        "city": "Hamm",
        "lat": "51.6800617",
        "lon": "7.8126464",
        "mon": "11:00-18:00",
        "tue": "11:00-18:00",
        "wed": "11:00-18:00",
        "thu": "11:00-18:00",
        "fri": "11:00-18:00",
        "sat": "11:00-18:00",
        "sun": "-",
        "url": "https://www.haema.de/spendezentren/nordrhein-westfalen/hamm.html",
        "phone": "2381 929929 0",
        "whole_blood_donation": "ja",
        "platelet_donation": "nein",
        "plasma_donation": "nein",
        "erythrocyte_donation": null
    },
    {
        "id": 92,
        "name": "Marien Gesellschaft Siegen GmbH",
        "address": "Kampenstr. 51",
        "zip": "57072",
        "city": "Siegen",
        "lat": "50.87922769999999",
        "lon": "8.0302847",
        "mon": "-",
        "tue": "15:00-20:00",
        "wed": "15:00-20:00",
        "thu": "15:00-20:00",
        "fri": "-",
        "sat": "-",
        "sun": "-",
        "url": "https://www.blutspendedienst-west.de/blutspendetermine/termine?utf8=%E2%9C%93&term=siegen",
        "phone": "-",
        "whole_blood_donation": "ja",
        "platelet_donation": "nein",
        "plasma_donation": "nein",
        "erythrocyte_donation": null
    },
    {
        "id": 132,
        "name": "Blutspendezentrum Neum\u00c3\u00bcnster",
        "address": null,
        "zip": "23534",
        "city": "Neum\u00c3\u00bcnster",
        "lat": "54.0729431",
        "lon": "9.9840158",
        "mon": null,
        "tue": null,
        "wed": null,
        "thu": null,
        "fri": null,
        "sat": null,
        "sun": null,
        "url": "http://www.drk-nms.de/blutspende.html",
        "phone": null,
        "whole_blood_donation": null,
        "platelet_donation": null,
        "plasma_donation": null,
        "erythrocyte_donation": null
    },
    {
        "id": 133,
        "name": "Institut f\u00c3\u00bcr Transfusionsmedizin Suhl",
        "address": "Albert-Schweitzer-Stra\u00c3\u0178e 15",
        "zip": "98527",
        "city": "Suhl",
        "lat": "50.6033853",
        "lon": "10.709559",
        "mon": "07.00 Uhr - 18.30 Uhr",
        "tue": "07.00 Uhr - 18.30 Uhr",
        "wed": "07.00 Uhr - 18.30 Uhr",
        "thu": "07.00 Uhr - 18.30 Uhr",
        "fri": "07.00 Uhr - 18.00 Uhr",
        "sat": "09.00 Uhr - 12.30 Uhr",
        "sun": null,
        "url": "https://www.blutspendesuhl.de/",
        "phone": "(03681) 373-0",
        "whole_blood_donation": "ja",
        "platelet_donation": "nein",
        "plasma_donation": "ja",
        "erythrocyte_donation": null
    },
    {
        "id": 93,
        "name": "BZD Blutspendezentrum Duisburg",
        "address": "K\u00c3\u00b6nigsstra\u00c3\u0178e 53",
        "zip": "47051",
        "city": "Duisburg-Mitte",
        "lat": "51.43267",
        "lon": "6.7717374",
        "mon": "8:00-19:00",
        "tue": "8:00-19:00",
        "wed": "8:00-19:00",
        "thu": "8:00-19:00",
        "fri": "8:00-19:00",
        "sat": "8:00-13:00",
        "sun": "-",
        "url": "https://www.blutspendezentren.de/standort-duisburg.html",
        "phone": "0203 878 391 70",
        "whole_blood_donation": "ja",
        "platelet_donation": "nein",
        "plasma_donation": "nein",
        "erythrocyte_donation": null
    },
    {
        "id": 94,
        "name": "BZO Oberhausen",
        "address": "Centroallee 271",
        "zip": "46047",
        "city": "Oberhausen",
        "lat": "51.48813",
        "lon": "6.879309999999999",
        "mon": "9:00-17:30",
        "tue": "9:00-17:30",
        "wed": "9:00-17:30",
        "thu": "9:00-17:30",
        "fri": "-",
        "sat": "-",
        "sun": "-",
        "url": "https://www.blutspendezentren.de/standort-oberhausen.html",
        "phone": "0203 878 391 0",
        "whole_blood_donation": "ja",
        "platelet_donation": "nein",
        "plasma_donation": "nein",
        "erythrocyte_donation": null
    },
    {
        "id": 95,
        "name": "BZG Gelsenkirchen",
        "address": "Bahnhofstra\u00c3\u0178e 55-65",
        "zip": "45879",
        "city": "Gelsenkirchen",
        "lat": "51.5077221",
        "lon": "7.0997901",
        "mon": "11:00-19:00",
        "tue": "9:00-17:00",
        "wed": "8:00-16:00",
        "thu": "9:00-17:00",
        "fri": "9:00-19:00",
        "sat": "9:00-13:00",
        "sun": "-",
        "url": "https://www.blutspendezentren.de/standort-gelsenkirchen.html",
        "phone": "0209 155 180",
        "whole_blood_donation": "ja",
        "platelet_donation": "nein",
        "plasma_donation": "nein",
        "erythrocyte_donation": null
    },
    {
        "id": 96,
        "name": "BZW Wuppertal",
        "address": "Erholungsstra\u00c3\u0178e 19",
        "zip": "42103",
        "city": "Wuppertal",
        "lat": "51.25741679999999",
        "lon": "7.144518799999999",
        "mon": "10:00-18:00",
        "tue": "10:00-18:00",
        "wed": "10:00-18:00",
        "thu": "10:00-18:00",
        "fri": "10:00-18:00",
        "sat": "9:00-13:00",
        "sun": "-",
        "url": "https://www.blutspendezentren.de/standort-wuppertal.html",
        "phone": "0203 878 391 70",
        "whole_blood_donation": "ja",
        "platelet_donation": "nein",
        "plasma_donation": "nein",
        "erythrocyte_donation": null
    },
    {
        "id": 0,
        "name": "IKTZ Blutspendezentrale",
        "address": "Im Neuenheimer Feld 583",
        "zip": "69120",
        "city": "Heidelberg",
        "lat": "49.4224965",
        "lon": "8.6751427",
        "mon": "8:00-12:00; 13:00-16:00",
        "tue": "13:00-18:00",
        "wed": "8:00-12:00; 13:00-16:00",
        "thu": "14:00-19:00",
        "fri": "8:00-12:00; 13:00-16:00",
        "sat": null,
        "sun": null,
        "url": "https://www.iktz-hd.de/blutspende/wann-kann-ich-spenden/",
        "phone": "06221 65051-22",
        "whole_blood_donation": "ja",
        "platelet_donation": "ja",
        "plasma_donation": "ja",
        "erythrocyte_donation": null
    },
    {
        "id": 142,
        "name": "Zentralinstitut f\u00fcr Transfusionsmedizin und Blutspendedienst",
        "address": "Keplerstr. 32",
        "zip": "70174",
        "city": "Stuttgart",
        "lat": "48.7841484",
        "lon": "9.174564",
        "mon": "15:30-18:30",
        "tue": "8:00-12:45",
        "wed": "11:30:18:30",
        "thu": "8:00-12:45",
        "fri": "8:00-12:45",
        "sat": null,
        "sun": null,
        "url": "https://www.klinikum-stuttgart.de/kliniken-institute-zentren/zentralinstitut-fuer-transfusionsmedizin-und-blutspendedienst/blutspende/",
        "phone": "0711 27834701",
        "whole_blood_donation": "ja",
        "platelet_donation": "nein",
        "plasma_donation": "nein",
        "erythrocyte_donation": null
    },
    {
        "id": 143,
        "name": "Institut f\u00fcr Transfusionsmedizin und Immunologie",
        "address": "Friedrich-Ebert-Str. 107",
        "zip": "68167",
        "city": "Mannheim",
        "lat": "49.50386",
        "lon": "8.49733",
        "mon": "7:30-11:00; 14:00-18:30",
        "tue": "7:30-11:00; 14:00-18:30",
        "wed": null,
        "thu": "7:30-11:00; 14:00-18:30",
        "fri": "7:30-11:00",
        "sat": null,
        "sun": null,
        "url": "https://www.blutspende.de/ueber-uns/institute-einrichtungen/mannheim/institut-mannheim.php",
        "phone": "0621 3706-0",
        "whole_blood_donation": "ja",
        "platelet_donation": "nein",
        "plasma_donation": "ja",
        "erythrocyte_donation": null
    },
    {
        "id": 145,
        "name": "Institut f\u00fcr klinische Transfusionsmedizin und Immungenetik Ulm",
        "address": "Helmholtzstr. 10",
        "zip": "89081",
        "city": "Ulm",
        "lat": "48.42541",
        "lon": "9.961739999999999",
        "mon": "10:30-18:30",
        "tue": "7:45-15:00",
        "wed": "10:30-18:30",
        "thu": "11:00-19:00",
        "fri": "7:45-15:00",
        "sat": null,
        "sun": null,
        "url": "https://www.blutspende.de/ueber-uns/institute-einrichtungen/ulm/institut-ulm.php",
        "phone": "0731 150-560",
        "whole_blood_donation": "ja",
        "platelet_donation": "nein",
        "plasma_donation": "ja",
        "erythrocyte_donation": null
    },
    {
        "id": 146,
        "name": "Institut f\u00fcr Transfusionsmedizin und Gentherapie",
        "address": "Hugstetter Str. 55",
        "zip": "79106",
        "city": "Freiburg",
        "lat": "48.0058642",
        "lon": "7.839487399999999",
        "mon": "8:00-15:00",
        "tue": "8:00-15:00",
        "wed": "12:00-19:00",
        "thu": "12:00-19:00",
        "fri": "8:00-13:00",
        "sat": "8:00-13:00",
        "sun": null,
        "url": "https://www.uniklinik-freiburg.de/itg/blutspende.html",
        "phone": "0761 27044444",
        "whole_blood_donation": "ja ",
        "platelet_donation": "ja",
        "plasma_donation": "nein",
        "erythrocyte_donation": null
    },
    {
        "id": 144,
        "name": null,
        "address": "Otfried-M\u00fcller-Stra\u00dfe 4/1",
        "zip": "72076",
        "city": "T\u00fcbingen",
        "lat": "48.5319",
        "lon": "9.040189999999999",
        "mon": "9:00-19:00",
        "tue": "14:00-19:00",
        "wed": "9:00-19:00",
        "thu": "9:00-19:00",
        "fri": "9:00-19:00",
        "sat": null,
        "sun": null,
        "url": "https://www.blutspendezentrale.de/das-zentrum/oeffnungszeiten/",
        "phone": "07071 29 81616",
        "whole_blood_donation": "ja",
        "platelet_donation": "ja",
        "plasma_donation": "ja",
        "erythrocyte_donation": null
    },
    {
        "id": 147,
        "name": "Abteilung f\u00fcr Laboratoriumsmedizin und Krankenhaushygiene RBK",
        "address": "Auerbachstr. 100",
        "zip": "70376",
        "city": "Stuttgart",
        "lat": "48.8157674",
        "lon": "9.187367199999999",
        "mon": null,
        "tue": null,
        "wed": null,
        "thu": null,
        "fri": null,
        "sat": null,
        "sun": null,
        "url": "https://www.rbk.de/standorte/robert-bosch-krankenhaus/abteilungen/laboratoriumsmedizin-und-krankenhaushygiene/blutspende.html",
        "phone": "0711 8101-3555",
        "whole_blood_donation": "nein",
        "platelet_donation": "ja",
        "plasma_donation": "nein",
        "erythrocyte_donation": null
    },
    {
        "id": 7,
        "name": "Plasmazentrum Heidelberg",
        "address": "Hans-B\u00c3\u00b6ckler-Stra\u00c3\u0178e 2a",
        "zip": "69115",
        "city": "Heidelberg",
        "lat": "49.40602430000001",
        "lon": "8.6932127",
        "mon": null,
        "tue": null,
        "wed": null,
        "thu": null,
        "fri": null,
        "sat": null,
        "sun": null,
        "url": "https://www.plasmazentrum-heidelberg.de/",
        "phone": "06221 89466960",
        "whole_blood_donation": "nein",
        "platelet_donation": "nein",
        "plasma_donation": "ja",
        "erythrocyte_donation": null
    },
    {
        "id": 164,
        "name": null,
        "address": null,
        "zip": null,
        "city": "Bremen",
        "lat": "53.07929619999999",
        "lon": "8.8016936",
        "mon": null,
        "tue": null,
        "wed": null,
        "thu": null,
        "fri": null,
        "sat": null,
        "sun": null,
        "url": null,
        "phone": "0421/173 64-0",
        "whole_blood_donation": null,
        "platelet_donation": null,
        "plasma_donation": null,
        "erythrocyte_donation": null
    },
    {
        "id": 48,
        "name": "Blutspendedienst Altona ",
        "address": "Ottenser Hauptstr. 10",
        "zip": "22765",
        "city": "Hamburg",
        "lat": "53.5523015",
        "lon": "9.9325765",
        "mon": "11.30 - 16.30",
        "tue": "11.30 - 14.30 und 15.15 - 19.00",
        "wed": "11.30 - 14.30 und 15.15 - 19.00",
        "thu": "11.30 - 14.30 und 15.15 - 19.00",
        "fri": null,
        "sat": null,
        "sun": null,
        "url": "https://www.blutspendehamburg.de/standorte-ablaufzeiten/standorte/blutspendedienst-altona/",
        "phone": "(0 40) 20 00 22 00",
        "whole_blood_donation": "ja",
        "platelet_donation": "ja",
        "plasma_donation": "ja",
        "erythrocyte_donation": null
    },
    {
        "id": 49,
        "name": "Blutspendedienst Hamburg Nord",
        "address": "Langenhorner Markt 5",
        "zip": "22415",
        "city": "Hamburg",
        "lat": "53.64973999999999",
        "lon": "10.01397",
        "mon": null,
        "tue": "11.30 - 14.30 und 15.15 - 19.00",
        "wed": "11.30 - 14.30 und 15.15 - 19.00",
        "thu": "11.30 - 14.30 und 15.15 - 19.00",
        "fri": "7.30 - 10.15 und 11:00 - 14:30",
        "sat": null,
        "sun": null,
        "url": "https://www.blutspendehamburg.de/standorte-ablaufzeiten/standorte/blutspendedienst-hamburg-nord/",
        "phone": "(0 40) 20 00 22 00",
        "whole_blood_donation": "ja",
        "platelet_donation": "ja",
        "plasma_donation": "ja",
        "erythrocyte_donation": null
    },
    {
        "id": 50,
        "name": "Blutspendedienst Hamburg West",
        "address": "Quarree 2",
        "zip": "22041",
        "city": "Hamburg",
        "lat": "53.573226",
        "lon": "10.0644632",
        "mon": "11.30 - 16.30",
        "tue": "11.30 - 19.00",
        "wed": "11.30 - 19.00",
        "thu": "11.30 - 19.00",
        "fri": "7.30 - 14:30",
        "sat": "09:00 - 14:00",
        "sun": null,
        "url": "https://www.blutspendehamburg.de/standorte-ablaufzeiten/standorte/blutspendedienst-wandsbek/",
        "phone": "(0 40) 20 00 22 00",
        "whole_blood_donation": "ja",
        "platelet_donation": "ja",
        "plasma_donation": "ja",
        "erythrocyte_donation": null
    },
    {
        "id": 51,
        "name": "Blutspendedienst Hamburg Harburg",
        "address": "L\u00c3\u00bcneburger Str. 25",
        "zip": "21073",
        "city": "Hamburg",
        "lat": "53.4586534",
        "lon": "9.9825793",
        "mon": null,
        "tue": "11.30 - 14.30 und 15.15 - 19.00",
        "wed": "11.30 - 14.30 und 15.15 - 19.00",
        "thu": "11.30 - 14.30 und 15.15 - 19.00",
        "fri": "7.30 - 10.15 und 11:00 - 14:30",
        "sat": null,
        "sun": null,
        "url": "https://www.blutspendehamburg.de/standorte-ablaufzeiten/standorte/blutspendedienst-harburg/",
        "phone": "(0 40) 20 00 22 00",
        "whole_blood_donation": "ja",
        "platelet_donation": "ja",
        "plasma_donation": "ja",
        "erythrocyte_donation": null
    },
    {
        "id": 52,
        "name": "Blutspende Marburg ",
        "address": "Baldingerstra\u00c3\u0178e",
        "zip": "35043",
        "city": "Marburg",
        "lat": "50.8161402",
        "lon": "8.806970699999999",
        "mon": "08:00-15:30 Uhr",
        "tue": "12:00-18:30 Uhr",
        "wed": "12:00-18:30 Uhr",
        "thu": "08:00-15:30 Uhr",
        "fri": "08:00-15:30 Uhr",
        "sat": null,
        "sun": null,
        "url": "https://www.ukgm.de/ugm_2/deu/umr_tra/7308.html",
        "phone": "06421/58-64492",
        "whole_blood_donation": "ja",
        "platelet_donation": null,
        "plasma_donation": null,
        "erythrocyte_donation": null
    },
    {
        "id": 166,
        "name": "Blutspende Gie\u00dfen ",
        "address": "Langhansstra\u00dfe 7",
        "zip": "35392",
        "city": "Gie\u00dfen",
        "lat": "50.57429",
        "lon": "8.663",
        "mon": "09:00 - 18:00 Uhr",
        "tue": "09:00 - 18:00 Uhr",
        "wed": "09:00 - 18:00 Uhr",
        "thu": "09:00 - 18:00 Uhr",
        "fri": "09:00 - 12:00 Uhr",
        "sat": "10:00 - 14:00 Uhr",
        "sun": "-",
        "url": "https://www.ukgm.de/ugm_2/deu/ugi_tra/7316.html",
        "phone": "0641/985-41506",
        "whole_blood_donation": "ja",
        "platelet_donation": null,
        "plasma_donation": null,
        "erythrocyte_donation": null
    },
    {
        "id": 167,
        "name": "Campusspende Gie\u00dfen / Mobile Blutspende",
        "address": "Otto-Behaghel Strasse 27",
        "zip": "35394",
        "city": "Gie\u00dfen",
        "lat": "50.57650899999999",
        "lon": "8.6908391",
        "mon": null,
        "tue": "11:00 -15:00 Uhr",
        "wed": null,
        "thu": null,
        "fri": null,
        "sat": null,
        "sun": null,
        "url": "https://www.ukgm.de/ugm_2/deu/ugi_tra/7318.html",
        "phone": "0641/985-41506",
        "whole_blood_donation": "ja",
        "platelet_donation": null,
        "plasma_donation": null,
        "erythrocyte_donation": null
    },
    {
        "id": 168,
        "name": "Institut f\u00fcr Transfusionsmedizin und Immunh\u00e4matologie Frankfurt am Main",
        "address": "Sandhofstra\u00dfe 1",
        "zip": "60528",
        "city": "Frankfurt",
        "lat": "50.0919967",
        "lon": "8.654623599999999",
        "mon": "-",
        "tue": "11.30 - 18.30 Uhr",
        "wed": "09.00 - 14.00 Uhr",
        "thu": "11.30 - 18.30 Uhr",
        "fri": "09.00 - 14.00 Uhr",
        "sat": "-",
        "sun": "-",
        "url": "https://www.blutspende.de/infos-zur-blutspende/blutspendezentren/institut-frankfurt.php",
        "phone": "069 - 67 82 - 0",
        "whole_blood_donation": "ja",
        "platelet_donation": "ja",
        "plasma_donation": "ja",
        "erythrocyte_donation": null
    },
    {
        "id": 56,
        "name": "CSL Plasma Center ",
        "address": "Stiftstra\u00c3\u0178e 9-17",
        "zip": "60313",
        "city": "Frankfurt",
        "lat": "50.11522069999999",
        "lon": "8.6824438",
        "mon": "08:00 \u2013 19:00 Uhr",
        "tue": "08:00 \u2013 19:00 Uhr",
        "wed": "12:00 \u2013 19:00 Uhr",
        "thu": "08:00 \u2013 19:00 Uhr",
        "fri": "08:00 \u2013 19:00 Uhr",
        "sat": null,
        "sun": "-",
        "url": "https://www.plasma-spenden.de/",
        "phone": "0049 69 88 70 61",
        "whole_blood_donation": "nein",
        "platelet_donation": "nein",
        "plasma_donation": "ja",
        "erythrocyte_donation": null
    },
    {
        "id": 169,
        "name": "Institut f\u00fcr Transfusionsmedizin und Immunh\u00e4matologie Kassel",
        "address": "M\u00f6nchebergstra\u00dfe 57",
        "zip": "34125",
        "city": "Kassel",
        "lat": "51.32918859999999",
        "lon": "9.5103036",
        "mon": "8.00 - 15.00 Uhr",
        "tue": "11.00 - 19.00 Uhr",
        "wed": "8.00 - 15.00 Uhr",
        "thu": "8.00 - 15.00 Uhr",
        "fri": null,
        "sat": "-",
        "sun": "-",
        "url": "https://www.blutspende.de/infos-zur-blutspende/blutspendezentren/institut-kassel.php",
        "phone": "05 61 - 87 93 - 0",
        "whole_blood_donation": "ja",
        "platelet_donation": "nein",
        "plasma_donation": "ja",
        "erythrocyte_donation": null
    },
    {
        "id": 61,
        "name": "Blutspendezentrum Schwerin",
        "address": "Wismarsche Stra\u00c3\u0178e 298",
        "zip": "19055",
        "city": "Schwerin",
        "lat": "53.644517",
        "lon": "11.407932",
        "mon": null,
        "tue": null,
        "wed": "13:00-19:00",
        "thu": null,
        "fri": "12:00-18:00",
        "sat": null,
        "sun": null,
        "url": "https://www.blutspendemv.de/startseite/startseite.php",
        "phone": "385591450",
        "whole_blood_donation": "Ja",
        "platelet_donation": "Nein",
        "plasma_donation": "Ja",
        "erythrocyte_donation": null
    },
    {
        "id": 62,
        "name": "Blutspendezentrum Rostock",
        "address": "Robert-Koch-Stra\u00c3\u0178e 10",
        "zip": "18059",
        "city": "Rostock",
        "lat": "54.0711716",
        "lon": "12.1106599",
        "mon": "13-19:00",
        "tue": "13:00-19:00",
        "wed": "13:00-19:00",
        "thu": "13:00-19:00",
        "fri": "8:30-13:00",
        "sat": null,
        "sun": null,
        "url": "https://www.blutspendemv.de/startseite/startseite.php",
        "phone": "381440350",
        "whole_blood_donation": "Ja",
        "platelet_donation": "nein",
        "plasma_donation": "ja",
        "erythrocyte_donation": null
    },
    {
        "id": 175,
        "name": "City-Blut-Spende M\u00fcnster",
        "address": "Klarissengasse 9",
        "zip": "48143",
        "city": "M\u00fcnster",
        "lat": "51.9598247",
        "lon": "7.628708499999999",
        "mon": "12:00-18:00",
        "tue": "12:00-18:00",
        "wed": "14:00-20:00",
        "thu": "12:00-18:00",
        "fri": "12:00-18:00",
        "sat": "11:00-17:00",
        "sun": "-",
        "url": "https://www.blutspendedienst-west.de/blutspendetermine/spendeorte/2487-blutspende-in-muenster",
        "phone": "0251 7090",
        "whole_blood_donation": "ja",
        "platelet_donation": "nein",
        "plasma_donation": "nein",
        "erythrocyte_donation": null
    },
    {
        "id": 182,
        "name": null,
        "address": null,
        "zip": null,
        "city": null,
        "lat": null,
        "lon": null,
        "mon": null,
        "tue": null,
        "wed": null,
        "thu": null,
        "fri": null,
        "sat": null,
        "sun": null,
        "url": null,
        "phone": null,
        "whole_blood_donation": null,
        "platelet_donation": null,
        "plasma_donation": null,
        "erythrocyte_donation": null
    },
    {
        "id": 183,
        "name": null,
        "address": null,
        "zip": null,
        "city": null,
        "lat": null,
        "lon": null,
        "mon": null,
        "tue": null,
        "wed": null,
        "thu": null,
        "fri": null,
        "sat": null,
        "sun": null,
        "url": null,
        "phone": null,
        "whole_blood_donation": null,
        "platelet_donation": null,
        "plasma_donation": null,
        "erythrocyte_donation": null
    },
    {
        "id": 184,
        "name": null,
        "address": null,
        "zip": null,
        "city": null,
        "lat": null,
        "lon": null,
        "mon": null,
        "tue": null,
        "wed": null,
        "thu": null,
        "fri": null,
        "sat": null,
        "sun": null,
        "url": null,
        "phone": null,
        "whole_blood_donation": null,
        "platelet_donation": null,
        "plasma_donation": null,
        "erythrocyte_donation": null
    },
    {
        "id": 185,
        "name": null,
        "address": null,
        "zip": null,
        "city": null,
        "lat": null,
        "lon": null,
        "mon": null,
        "tue": null,
        "wed": null,
        "thu": null,
        "fri": null,
        "sat": null,
        "sun": null,
        "url": null,
        "phone": null,
        "whole_blood_donation": null,
        "platelet_donation": null,
        "plasma_donation": null,
        "erythrocyte_donation": null
    },
    {
        "id": 97,
        "name": "Plasmaspende Koblenz",
        "address": "L\u00c3\u00b6hrstra\u00c3\u0178e 23",
        "zip": "56068",
        "city": "Koblenz",
        "lat": "50.3594555",
        "lon": "7.5941263",
        "mon": "12:00 bis 20:00 Uhr",
        "tue": "12:00 bis 20:00 Uhr",
        "wed": "12:00 bis 20:00 Uhr",
        "thu": "12:00 bis 20:00 Uhr",
        "fri": "12:00 bis 20:00 Uhr",
        "sat": null,
        "sun": null,
        "url": "https://www.octapharmaplasma.de/standorte/koblenz",
        "phone": "0261 973760",
        "whole_blood_donation": "nein",
        "platelet_donation": "nein",
        "plasma_donation": "ja",
        "erythrocyte_donation": null
    },
    {
        "id": 98,
        "name": "Transfusionszentrale ",
        "address": "Augustusplatz (Geb\u00c3\u00a4ude 905)",
        "zip": "55131",
        "city": "Mainz",
        "lat": "49.9934082",
        "lon": "8.2605116",
        "mon": "8:00 - 16:00 Uhr",
        "tue": "8:00 - 18:00 Uhr",
        "wed": "8:00 - 16:00 Uhr",
        "thu": "8:00 - 18:00 Uhr",
        "fri": "8:00 - 16:00 Uhr",
        "sat": "8:00 - 11:00 Uhr",
        "sun": "-",
        "url": "https://www.unimedizin-mainz.de/transfusionszentrale/startseite/startseite.html",
        "phone": "0049 6131 17317",
        "whole_blood_donation": "ja",
        "platelet_donation": "ja",
        "plasma_donation": "nein",
        "erythrocyte_donation": null
    },
    {
        "id": 177,
        "name": "Zentrum f\u00fcr Transfusionsmedizin",
        "address": "Burgweg 5-7",
        "zip": "55543",
        "city": "Bad Kreuznach",
        "lat": "49.82444",
        "lon": "7.848199999999999",
        "mon": "08:00 - 14:00 Uhr",
        "tue": "15:00 - 19:00 Uhr",
        "wed": "08:00 - 15:00 Uhr",
        "thu": "11:00 - 18:00 Uhr",
        "fri": "08:00 - 14:00 Uhr",
        "sat": null,
        "sun": null,
        "url": "https://www.blutspendedienst-west.de/blutspendedienst/standorte/Bad-Kreuznach",
        "phone": "0671 253 0",
        "whole_blood_donation": "ja",
        "platelet_donation": "nein",
        "plasma_donation": "nein",
        "erythrocyte_donation": null
    },
    {
        "id": 100,
        "name": "Blutspendezentrale Saar-Pfalz",
        "address": "Hellmut-Hartert-Str. 1",
        "zip": "67655",
        "city": "Kaiserslautern",
        "lat": "49.4414225",
        "lon": "7.7563894",
        "mon": "8:00 bis 15:00 Uhr",
        "tue": "12:00 bis 18:00 Uhr",
        "wed": "12:00 bis 18:00 Uhr",
        "thu": "8:00 bis 15:00 Uhr",
        "fri": "8:00 bis 15:00 Uhr",
        "sat": "Jeden 3. Samstag im Monat; 10:00 bis 13:00 Uhr",
        "sun": null,
        "url": "https://www.blutspendezentrale-saarpfalz.de/",
        "phone": "0681/963-2560",
        "whole_blood_donation": "ja",
        "platelet_donation": "ja",
        "plasma_donation": "ja ",
        "erythrocyte_donation": null
    },
    {
        "id": 101,
        "name": "Blutspendezentrale Saar-Pfalz",
        "address": "Theodor-Heuss-Str. 128",
        "zip": "66119",
        "city": "Saarbr\u00c3\u00bccken",
        "lat": "49.2206067",
        "lon": "6.9934156",
        "mon": "8:00 bis 15:00 Uhr",
        "tue": "12:00 bis 18:00 Uhr",
        "wed": "12:00 bis 18:00 Uhr",
        "thu": "8:00 bis 15:00 Uhr",
        "fri": "8:00 bis 15:00 Uhr",
        "sat": "Jeden 3. Samstag im Monat; 10:00 bis 13:00 Uhr",
        "sun": null,
        "url": "https://www.blutspendezentrale-saarpfalz.de/",
        "phone": "0681/963-2560",
        "whole_blood_donation": "ja",
        "platelet_donation": "ja",
        "plasma_donation": "ja ",
        "erythrocyte_donation": null
    },
    {
        "id": 102,
        "name": "Blutspendedienst ",
        "address": "Ringstra\u00c3\u0178e 52",
        "zip": "66421",
        "city": "Homburg/Saar",
        "lat": "49.3120675",
        "lon": "7.342869299999998",
        "mon": "\"08:00 - 11:00 Uhr",
        "tue": " 13:00 - 14:00 Uhr\"",
        "wed": "08:00 - 11:00 Uhr; 13:00 - 14:00 Uhr",
        "thu": "13:00 - 18:30 Uhr",
        "fri": "13:00 - 18:30 Uhr",
        "sat": "-",
        "sun": "-",
        "url": "-",
        "phone": null,
        "whole_blood_donation": "06841 16-22540",
        "platelet_donation": "ja",
        "plasma_donation": "ja",
        "erythrocyte_donation": "nein"
    },
    {
        "id": 165,
        "name": "Institut f\u00fcr Transfusionsmedizin",
        "address": "Martinistra\u00dfe 52",
        "zip": "20251",
        "city": "Hamburg",
        "lat": "53.5902421",
        "lon": "9.9785922",
        "mon": "08:00-19:00",
        "tue": "11:30-19:00",
        "wed": "11:30-19:00",
        "thu": "11:30-19:00",
        "fri": "08:00-19:00",
        "sat": "jeden letztenSA im Monat von 10-14 Uhr",
        "sun": null,
        "url": "\"https://blutbank.uniklinikum-leipzig.de/blutbank2012.site",
        "phone": "standorte.html\"",
        "whole_blood_donation": "info@blutbank-leipzig.de",
        "platelet_donation": "03 41 / 97 - 2 53 93",
        "plasma_donation": "ja",
        "erythrocyte_donation": "ja "
    },
    {
        "id": 178,
        "name": "Institut f\u00fcr Transfusionsmedizin",
        "address": "Johannisallee 32 | Haus 8",
        "zip": "4103",
        "city": "Leipzig",
        "lat": "51.3293019",
        "lon": "12.3902125",
        "mon": "08:00-19:00",
        "tue": "11:30-19:00",
        "wed": "11:30-19:00",
        "thu": "11:30-19:00",
        "fri": "08:00-19:00",
        "sat": "jeden letztenSA im Monat von 10-14 Uhr",
        "sun": null,
        "url": "\"https://blutbank.uniklinikum-leipzig.de/blutbank2012.site",
        "phone": "standorte.html\"",
        "whole_blood_donation": "info@blutbank-leipzig.de",
        "platelet_donation": "03 41 / 97 - 2 53 93",
        "plasma_donation": "ja",
        "erythrocyte_donation": "ja "
    },
    {
        "id": 179,
        "name": "Institut f\u00fcr Transfusionsmedizin ",
        "address": "Blasewitzer Str. 68/70",
        "zip": "1307",
        "city": "Dresden",
        "lat": "51.05291",
        "lon": "13.78018",
        "mon": "08.00 \u2013 12.00 Uhr und",
        "tue": "08.00 \u2013 12.00 Uhr und",
        "wed": "08.00 \u2013 12.00 Uhr und",
        "thu": "08.00 \u2013 12.00 Uhr und",
        "fri": "08.00 \u2013 12.00",
        "sat": null,
        "sun": null,
        "url": "https://www.blutspende-nordost.de/blutspende/termine-zur-blutspende/blutspende-plasmaspende-chemnitz.php",
        "phone": "0371 43220\u20130",
        "whole_blood_donation": "ja",
        "platelet_donation": "nein",
        "plasma_donation": "ja",
        "erythrocyte_donation": null
    },
    {
        "id": 180,
        "name": "Institut f\u00fcr Transfusionsmedizin ",
        "address": "Zeisigwaldstra\u00dfe 103",
        "zip": "9130",
        "city": "Chemnitz",
        "lat": "50.8407341",
        "lon": "12.962506",
        "mon": "08.00 \u2013 12.00 Uhr und",
        "tue": "08.00 \u2013 12.00 Uhr und",
        "wed": "08.00 \u2013 12.00 Uhr und",
        "thu": "08.00 \u2013 12.00 Uhr und",
        "fri": "08.00 \u2013 12.00",
        "sat": null,
        "sun": null,
        "url": "https://www.blutspende-nordost.de/blutspende/termine-zur-blutspende/blutspende-plasmaspende-chemnitz.php",
        "phone": "0371 43220\u20130",
        "whole_blood_donation": "ja",
        "platelet_donation": "nein",
        "plasma_donation": "ja",
        "erythrocyte_donation": null
    },
    {
        "id": 106,
        "name": "Haema Blutspendezentrum Chemnitz",
        "address": "Rosenhof Arkaden | Markt 5",
        "zip": "9111",
        "city": "Chemnitz",
        "lat": "50.831837",
        "lon": "12.9193435",
        "mon": "7:30 - 19:30 Uhr",
        "tue": "7:30 - 19:30 Uhr",
        "wed": "7:30 - 19:30 Uhr",
        "thu": "7:30 - 19:30 Uhr",
        "fri": "7:30 - 19:30 Uhr",
        "sat": "7:00 - 13:00 Uhr",
        "sun": null,
        "url": "https://www.haema.de/spendezentren/sachsen/chemnitz.html",
        "phone": "0371 666 275 0",
        "whole_blood_donation": "ja",
        "platelet_donation": "nein",
        "plasma_donation": "ja",
        "erythrocyte_donation": null
    },
    {
        "id": 107,
        "name": "Haema Plasmaspendezentrum Dresden-Elbepark",
        "address": "Stadthaus | Lommatzscher Stra\u00c3\u0178e 82",
        "zip": "1139",
        "city": "Dresden",
        "lat": "51.0823083",
        "lon": "13.6960235",
        "mon": "8:00 - 19:30 Uhr",
        "tue": "8:00 - 19:30 Uhr",
        "wed": "8:00 - 19:30 Uhr",
        "thu": "8:00 - 19:30 Uhr",
        "fri": "8:00 - 19:30 Uhr",
        "sat": "8:00 - 13:00 Uhr",
        "sun": null,
        "url": "https://www.haema.de/spendezentren/sachsen/dresden-elbepark.html",
        "phone": "0351 20 28 700",
        "whole_blood_donation": "nein",
        "platelet_donation": "nein",
        "plasma_donation": "ja",
        "erythrocyte_donation": null
    },
    {
        "id": 108,
        "name": "Haema Blutspendezentrum Dresden-World Trade Center",
        "address": "Rosenstra\u00c3\u0178e 30",
        "zip": "1067",
        "city": "Dresden",
        "lat": "51.04808999999999",
        "lon": "13.7237",
        "mon": "7:00 - 20:00 Uhr",
        "tue": "7:00 - 20:00 Uhr",
        "wed": "7:00 - 20:00 Uhr",
        "thu": "7:00 - 20:00 Uhr",
        "fri": "7:00 - 20:00 Uhr",
        "sat": "7:00 - 12:00 Uhr",
        "sun": null,
        "url": "https://www.haema.de/spendezentren/sachsen/dresden-world-trade-center.html",
        "phone": "0351 407 925 0",
        "whole_blood_donation": "ja",
        "platelet_donation": "nein",
        "plasma_donation": "ja",
        "erythrocyte_donation": null
    },
    {
        "id": 109,
        "name": "Haema Blutspendezentrum Dresden-Fetscherplatz",
        "address": "Fetscherplatz 2a",
        "zip": "1307",
        "city": "Dresden",
        "lat": "51.0467891",
        "lon": "13.7705699",
        "mon": "7:00 - 20:00 Uhr",
        "tue": "7:00 - 20:00 Uhr",
        "wed": "7:00 - 20:00 Uhr",
        "thu": "7:00 - 20:00 Uhr",
        "fri": "7:00 - 20:00 Uhr",
        "sat": "7:00 - 12:00 Uhr",
        "sun": null,
        "url": "https://www.haema.de/spendezentren/sachsen/dresden-fetscherplatz.html",
        "phone": "0351 216 681 0",
        "whole_blood_donation": "ja",
        "platelet_donation": "nein",
        "plasma_donation": "ja",
        "erythrocyte_donation": null
    },
    {
        "id": 110,
        "name": "Haema Blutspendezentrum Freiberg",
        "address": "Bahnhofstra\u00c3\u0178e 40-42",
        "zip": "9599",
        "city": "Freiberg",
        "lat": "50.9117164",
        "lon": "13.3449795",
        "mon": "7:30 - 19:30 Uhr",
        "tue": "7:30 - 19:30 Uhr",
        "wed": "7:30 - 19:30 Uhr",
        "thu": "7:30 - 19:30 Uhr",
        "fri": "7:30 - 19:30 Uhr",
        "sat": "        7:30 - 12:00 Uhr",
        "sun": null,
        "url": "https://www.haema.de/spendezentren/sachsen/freiberg.html",
        "phone": "03731 589 594 0",
        "whole_blood_donation": "ja",
        "platelet_donation": "nein",
        "plasma_donation": "ja",
        "erythrocyte_donation": null
    },
    {
        "id": 181,
        "name": "Haema Blutspendezentrum G\u00f6rlitz",
        "address": "CityCenter Frauentor | An der Frauenkirche 12",
        "zip": "2826",
        "city": "G\u00f6rlitz",
        "lat": "51.15170999999999",
        "lon": "14.987955",
        "mon": "7:00 - 18:30 Uhr",
        "tue": "7:00 - 18:30 Uhr",
        "wed": "7:00 - 18:30 Uhr",
        "thu": "7:00 - 18:30 Uhr",
        "fri": "7:00 - 18:30 Uhr",
        "sat": "7:00 - 12:00 Uhr",
        "sun": null,
        "url": "https://www.haema.de/spendezentren/sachsen/goerlitz.html",
        "phone": "03581 877 780",
        "whole_blood_donation": "ja",
        "platelet_donation": "nein",
        "plasma_donation": "ja",
        "erythrocyte_donation": "ja"
    },
    {
        "id": 112,
        "name": "Haema Blutspendezentrum Grimma",
        "address": "K\u00c3\u00a4the-Kollwitz-Stra\u00c3\u0178e 6",
        "zip": "4668",
        "city": "Grimma",
        "lat": "51.23798739999999",
        "lon": "12.722138",
        "mon": "12:00 - 18:00 Uhr",
        "tue": "12:00 - 18:00 Uhr",
        "wed": "12:00 - 18:00 Uhr",
        "thu": "12:00 - 18:00 Uhr",
        "fri": "12:00 - 18:00 Uhr",
        "sat": "12:00 - 18:00 Uhr",
        "sun": null,
        "url": "https://www.haema.de/spendezentren/sachsen/grimma.html?nomob=1",
        "phone": "03437 707 650",
        "whole_blood_donation": "ja",
        "platelet_donation": "nein",
        "plasma_donation": "ja",
        "erythrocyte_donation": null
    },
    {
        "id": 113,
        "name": "Haema Blutspendezentrum Leipzig-Markt",
        "address": "Markt 9",
        "zip": "4109",
        "city": " Leipzig",
        "lat": "51.34087299999999",
        "lon": "12.374145",
        "mon": "8:00 - 18:30 Uhr",
        "tue": "8:00 - 18:30 Uhr",
        "wed": "8:00 - 18:30 Uhr",
        "thu": "8:00 - 18:30 Uhr",
        "fri": "8:00 - 18:30 Uhr",
        "sat": "8:00 - 18:30 Uhr",
        "sun": null,
        "url": "https://www.haema.de/spendezentren/sachsen/leipzig-markt.html?nomob=1",
        "phone": "0341 212 006 0",
        "whole_blood_donation": "ja",
        "platelet_donation": "ja",
        "plasma_donation": "ja",
        "erythrocyte_donation": null
    },
    {
        "id": 114,
        "name": "Haema Blutspendezentrum Leipzig-Gohlis Arkaden",
        "address": "L\u00c3\u00bctzowstra\u00c3\u0178e 11",
        "zip": "4155",
        "city": " Leipzig",
        "lat": "51.3618371",
        "lon": "12.3711376",
        "mon": "7:00 - 20:00 Uhr",
        "tue": "7:00 - 20:00 Uhr",
        "wed": "7:00 - 20:00 Uhr",
        "thu": "7:00 - 20:00 Uhr",
        "fri": "7:00 - 20:00 Uhr",
        "sat": "7:00 - 13:00 Uhr",
        "sun": null,
        "url": "https://www.haema.de/spendezentren/sachsen/leipzig-gohlis-arkaden.html",
        "phone": "0341 583 095 0",
        "whole_blood_donation": "ja",
        "platelet_donation": "ja",
        "plasma_donation": "ja",
        "erythrocyte_donation": null
    },
    {
        "id": 115,
        "name": "Haema Blutspendezentrum Leipzig-Connewitz",
        "address": "Karl-Liebknecht-Stra\u00c3\u0178e 153-155",
        "zip": "4277",
        "city": "Leipzig",
        "lat": "51.3119031",
        "lon": "12.3736328",
        "mon": "8:00 - 19:00 Uhr",
        "tue": "8:00 - 19:00 Uhr",
        "wed": "8:00 - 19:00 Uhr",
        "thu": "8:00 - 19:00 Uhr",
        "fri": "8:00 - 19:00 Uhr",
        "sat": "8:00 - 12:00 Uhr",
        "sun": null,
        "url": "https://www.haema.de/spendezentren/sachsen/leipzig-connewitz.html",
        "phone": "0341 303 768 0",
        "whole_blood_donation": "ja",
        "platelet_donation": "ja",
        "plasma_donation": "ja",
        "erythrocyte_donation": null
    },
    {
        "id": 116,
        "name": "Haema Blutspendezentrum Plauen",
        "address": "Klostermarkt | Oberer Steinweg 10",
        "zip": "8523",
        "city": "Plauen",
        "lat": "50.494268",
        "lon": "12.137141",
        "mon": "7:30 - 19:30 Uhr",
        "tue": "7:30 - 19:30 Uhr",
        "wed": "7:30 - 19:30 Uhr",
        "thu": "7:30 - 19:30 Uhr",
        "fri": "7:30 - 19:30 Uhr",
        "sat": "7:30 - 12:00 Uhr",
        "sun": null,
        "url": "https://www.haema.de/spendezentren/sachsen/plauen.html?nomob=1",
        "phone": "03741 280 740",
        "whole_blood_donation": "ja",
        "platelet_donation": "nein",
        "plasma_donation": "ja",
        "erythrocyte_donation": null
    },
    {
        "id": 117,
        "name": "Haema Blutspendezentrum Zwickau",
        "address": "Zwickau Arcaden | Marienstra\u00c3\u0178e 3/1",
        "zip": "8056",
        "city": "Zwickau",
        "lat": "50.71895199999999",
        "lon": "12.4938284",
        "mon": "7:30 - 19:30 Uhr",
        "tue": "7:30 - 19:30 Uhr",
        "wed": "7:30 - 19:30 Uhr",
        "thu": "7:30 - 19:30 Uhr",
        "fri": "7:30 - 19:30 Uhr",
        "sat": "7:30 - 12:00 Uhr",
        "sun": null,
        "url": "https://www.haema.de/spendezentren/sachsen/zwickau.html?nomob=1",
        "phone": "0375 272 194 0",
        "whole_blood_donation": "ja",
        "platelet_donation": "nein",
        "plasma_donation": "ja",
        "erythrocyte_donation": null
    },
    {
        "id": 192,
        "name": null,
        "address": null,
        "zip": null,
        "city": null,
        "lat": null,
        "lon": null,
        "mon": null,
        "tue": null,
        "wed": null,
        "thu": null,
        "fri": null,
        "sat": null,
        "sun": null,
        "url": null,
        "phone": null,
        "whole_blood_donation": null,
        "platelet_donation": null,
        "plasma_donation": null,
        "erythrocyte_donation": null
    },
    {
        "id": 193,
        "name": null,
        "address": null,
        "zip": null,
        "city": null,
        "lat": null,
        "lon": null,
        "mon": null,
        "tue": null,
        "wed": null,
        "thu": null,
        "fri": null,
        "sat": null,
        "sun": null,
        "url": null,
        "phone": null,
        "whole_blood_donation": null,
        "platelet_donation": null,
        "plasma_donation": null,
        "erythrocyte_donation": null
    },
    {
        "id": 194,
        "name": null,
        "address": null,
        "zip": null,
        "city": null,
        "lat": null,
        "lon": null,
        "mon": null,
        "tue": null,
        "wed": null,
        "thu": null,
        "fri": null,
        "sat": null,
        "sun": null,
        "url": null,
        "phone": null,
        "whole_blood_donation": null,
        "platelet_donation": null,
        "plasma_donation": null,
        "erythrocyte_donation": null
    },
    {
        "id": 195,
        "name": null,
        "address": null,
        "zip": null,
        "city": null,
        "lat": null,
        "lon": null,
        "mon": null,
        "tue": null,
        "wed": null,
        "thu": null,
        "fri": null,
        "sat": null,
        "sun": null,
        "url": null,
        "phone": null,
        "whole_blood_donation": null,
        "platelet_donation": null,
        "plasma_donation": null,
        "erythrocyte_donation": null
    },
    {
        "id": 122,
        "name": "Medizinisches Institut Uniklinik Halle",
        "address": "Ernst-Grube-Stra\u00c3\u0178e 40",
        "zip": "6120",
        "city": "Halle an der Saale",
        "lat": "51.5013753",
        "lon": "11.9368361",
        "mon": "07:00-11:00",
        "tue": "10:00-19:00",
        "wed": null,
        "thu": "10:00-19:00",
        "fri": "10:00-15:00",
        "sat": null,
        "sun": null,
        "url": "https://www.medizin.uni-halle.de/index.php?id=1350",
        "phone": "(0345) 557 5656",
        "whole_blood_donation": "ja",
        "platelet_donation": "ja",
        "plasma_donation": "ja",
        "erythrocyte_donation": null
    },
    {
        "id": 186,
        "name": "Institut f\u00fcr Transfusionsmedizin und Immunh\u00e4matologie",
        "address": "Leipziger Str. 44",
        "zip": "39120",
        "city": "Magdeburg",
        "lat": "52.1026163",
        "lon": "11.6158495",
        "mon": "07.00-12.00",
        "tue": "11.00-19.00",
        "wed": "11.00-19.00",
        "thu": "07.00-12.00",
        "fri": "07.00-15.00",
        "sat": null,
        "sun": null,
        "url": "http://www.itib.ovgu.de/",
        "phone": "0391-67-13939",
        "whole_blood_donation": "ja",
        "platelet_donation": "ja",
        "plasma_donation": "ja",
        "erythrocyte_donation": null
    },
    {
        "id": 124,
        "name": "DRK-Blutspendedienst Nord-Ost gGmbH / Institut Schleswig",
        "address": "Rote-Kreuz-Weg 5",
        "zip": "24837",
        "city": "schleswig",
        "lat": "54.51558",
        "lon": "9.56371",
        "mon": "8:00-12:30",
        "tue": "14:00-19:00",
        "wed": "14:00-19:00",
        "thu": "11:00-19:00",
        "fri": "8:00-12:30",
        "sat": null,
        "sun": null,
        "url": null,
        "phone": null,
        "whole_blood_donation": null,
        "platelet_donation": null,
        "plasma_donation": null,
        "erythrocyte_donation": null
    },
    {
        "id": 125,
        "name": "Blutspendedienst Diakonie",
        "address": "Marienh\u00c3\u00b6lzungsweg 2",
        "zip": "24939",
        "city": "Flensburg",
        "lat": "54.7902378",
        "lon": "9.4250521",
        "mon": "10:00-15:00",
        "tue": "12:00-18:00",
        "wed": null,
        "thu": "12:00-18:00",
        "fri": "7:30-15:00",
        "sat": null,
        "sun": null,
        "url": null,
        "phone": "0461 8121655",
        "whole_blood_donation": null,
        "platelet_donation": null,
        "plasma_donation": null,
        "erythrocyte_donation": null
    },
    {
        "id": 126,
        "name": "UKSH Bluspendezentrum",
        "address": "Michaelisstra\u00c3\u0178e 5",
        "zip": "24105",
        "city": "Kiel",
        "lat": "54.33094999999999",
        "lon": "10.1442099",
        "mon": "13:00-18:00",
        "tue": "10:00-15:00",
        "wed": null,
        "thu": "13:00-18:00",
        "fri": "13:00-18:00",
        "sat": "10:00-14:00",
        "sun": null,
        "url": "https://www.uksh.de/blutspende/blutspende_luebeck.html",
        "phone": "0451 50016091",
        "whole_blood_donation": "ja",
        "platelet_donation": "ja",
        "plasma_donation": "ja",
        "erythrocyte_donation": null
    },
    {
        "id": 127,
        "name": "UKSH Bluspendezentrum",
        "address": "Citti-Park | M\u00c3\u00bchlendamm 1",
        "zip": "24113",
        "city": "Kiel",
        "lat": "54.3131711",
        "lon": "10.0985366",
        "mon": "13:00-18:00",
        "tue": "10:00-15:00",
        "wed": null,
        "thu": "13:00-18:00",
        "fri": "13:00-18:00",
        "sat": "10:00-14:00",
        "sun": null,
        "url": "https://www.uksh.de/blutspende/blutspende_luebeck.html",
        "phone": "0451 50016091",
        "whole_blood_donation": "ja",
        "platelet_donation": "ja",
        "plasma_donation": "ja",
        "erythrocyte_donation": null
    },
    {
        "id": 128,
        "name": "UKSH Bluspendezentrum",
        "address": "Ratzeburger Allee 160",
        "zip": "23562",
        "city": "L\u00c3\u00bcbeck",
        "lat": "53.8342754",
        "lon": "10.703648",
        "mon": "13:00-18:00",
        "tue": "10:00-15:00",
        "wed": null,
        "thu": "13:00-18:00",
        "fri": "13:00-18:00",
        "sat": "10:00-14:00",
        "sun": null,
        "url": "https://www.uksh.de/blutspende/blutspende_luebeck.html",
        "phone": "0451 50016091",
        "whole_blood_donation": "ja",
        "platelet_donation": "ja",
        "plasma_donation": "ja",
        "erythrocyte_donation": null
    },
    {
        "id": 129,
        "name": "UKSH Bluspendezentrum",
        "address": "Citti-Park | Herrenholz 14",
        "zip": "23556",
        "city": "L\u00c3\u00bcbeck",
        "lat": "53.8579081",
        "lon": "10.6283327",
        "mon": "13:00-18:00",
        "tue": "10:00-15:00",
        "wed": null,
        "thu": "13:00-18:00",
        "fri": "13:00-18:00",
        "sat": "10:00-14:00",
        "sun": null,
        "url": "https://www.uksh.de/blutspende/blutspende_luebeck.html",
        "phone": "0451 50016091",
        "whole_blood_donation": "ja",
        "platelet_donation": "ja",
        "plasma_donation": "ja",
        "erythrocyte_donation": null
    },
    {
        "id": 130,
        "name": "Haema Blutspendezentrum ",
        "address": "Sandstra\u00c3\u0178e 1",
        "zip": "23552",
        "city": "L\u00c3\u00bcbeck",
        "lat": "53.8656139",
        "lon": "10.6855996",
        "mon": "8:00-19:00",
        "tue": "8:00-19:00",
        "wed": "8:00-19:00",
        "thu": "8:00-19:00",
        "fri": "8:00-19:00",
        "sat": null,
        "sun": null,
        "url": "https://www.haema.de/spendezentren/schleswig-holstein/luebeck.html",
        "phone": "45198930110",
        "whole_blood_donation": "Ja",
        "platelet_donation": "Nein",
        "plasma_donation": "Ja",
        "erythrocyte_donation": null
    },
    {
        "id": 131,
        "name": "Blutspendedienst Itzehoe",
        "address": "Robert-Koch-Stra\u00c3\u0178e 2",
        "zip": "25524",
        "city": "Itzehoe",
        "lat": "53.94222689999999",
        "lon": "9.5040823",
        "mon": null,
        "tue": "10:00-18:00",
        "wed": "10:00-18:00",
        "thu": "11:00-19:00",
        "fri": "7:30-13:30",
        "sat": null,
        "sun": null,
        "url": "https://www.blutspendehamburg.de/standorte-ablaufzeiten/standorte/blutspendedienst",
        "phone": "4020002200",
        "whole_blood_donation": null,
        "platelet_donation": null,
        "plasma_donation": null,
        "erythrocyte_donation": null
    },
    {
        "id": 187,
        "name": "Blutspendezentrum Neum\u00fcnster",
        "address": null,
        "zip": "23534",
        "city": "Neum\u00fcnster",
        "lat": "54.0729431",
        "lon": "9.9840158",
        "mon": null,
        "tue": null,
        "wed": null,
        "thu": null,
        "fri": null,
        "sat": null,
        "sun": null,
        "url": "http://www.drk-nms.de/blutspende.html",
        "phone": null,
        "whole_blood_donation": null,
        "platelet_donation": null,
        "plasma_donation": null,
        "erythrocyte_donation": null
    },
    {
        "id": 188,
        "name": "Institut f\u00fcr Transfusionsmedizin Suhl",
        "address": "Albert-Schweitzer-Stra\u00dfe 15",
        "zip": "98527",
        "city": "Suhl",
        "lat": "50.6033853",
        "lon": "10.709559",
        "mon": "07.00 Uhr - 18.30 Uhr",
        "tue": "07.00 Uhr - 18.30 Uhr",
        "wed": "07.00 Uhr - 18.30 Uhr",
        "thu": "07.00 Uhr - 18.30 Uhr",
        "fri": "07.00 Uhr - 18.00 Uhr",
        "sat": "09.00 Uhr - 12.30 Uhr",
        "sun": null,
        "url": "https://www.blutspendesuhl.de/",
        "phone": "(03681) 373-0",
        "whole_blood_donation": "ja",
        "platelet_donation": "nein",
        "plasma_donation": "ja",
        "erythrocyte_donation": null
    },
    {
        "id": 134,
        "name": "Blut- und Plasmaspendestation Eisenach",
        "address": "M\u00c3\u00bchlh\u00c3\u00a4user Stra\u00c3\u0178e 27",
        "zip": "99817",
        "city": "Eisenach",
        "lat": "50.9825282",
        "lon": "10.3136216",
        "mon": "11:00 - 19:00 Uhr",
        "tue": "11:00 - 18:30 Uhr",
        "wed": "06:30 - 11:00 Uhr",
        "thu": "11:00 - 19:00 Uhr",
        "fri": "08:00 - 16:00 Uhr",
        "sat": "-",
        "sun": "-",
        "url": "https://www.blutspendesuhl.de/54-0-Oeffnungszeiten-Eisenach.html",
        "phone": "(0 36 91) 21 36 67",
        "whole_blood_donation": "ja",
        "platelet_donation": "nein ",
        "plasma_donation": "ja",
        "erythrocyte_donation": null
    },
    {
        "id": 135,
        "name": "Blut- und Plasmaspendestation Ilmenau",
        "address": "Wetzlarer Platz 1",
        "zip": "98693",
        "city": "Ilmenau",
        "lat": "50.6847429",
        "lon": "10.9173157",
        "mon": "07:00 - 19:00 Uhr",
        "tue": "07:00 - 19:00 Uhr",
        "wed": "08:00 - 20:00 Uhr",
        "thu": "07:00 - 19:00 Uhr",
        "fri": "07:00 - 17:00 Uhr",
        "sat": "-",
        "sun": "-",
        "url": "https://www.blutspendesuhl.de/58-0-Oeffnungszeiten-Ilmenau.html",
        "phone": "(0 36 77) 46 19 31",
        "whole_blood_donation": "ja",
        "platelet_donation": "nein",
        "plasma_donation": "ja",
        "erythrocyte_donation": null
    },
    {
        "id": 136,
        "name": "Blut- und Plasmaspendestation Erfurt",
        "address": "Mainzer Stra\u00c3\u0178e 36-37",
        "zip": "99089",
        "city": "Erfurt",
        "lat": "51.00502059999999",
        "lon": "11.0145377",
        "mon": "07:00 - 19:00 Uhr",
        "tue": "07:00 - 19:00 Uhr",
        "wed": "07:00 - 19:00 Uhr",
        "thu": "07:00 - 19:00 Uhr",
        "fri": "07:00 - 19:00 Uhr",
        "sat": "07:30 - 12:30 Uhr",
        "sun": "-",
        "url": "https://www.blutspendesuhl.de/146-0-Oeffnungszeiten-Erfurt.html",
        "phone": "(03 61) 55 06 07-0",
        "whole_blood_donation": "ja",
        "platelet_donation": "nein",
        "plasma_donation": "ja",
        "erythrocyte_donation": null
    },
    {
        "id": 137,
        "name": "Haema Blutspendezentrum Erfurt",
        "address": "Lachsgasse 3",
        "zip": "99084",
        "city": "Erfurt",
        "lat": "50.9739219",
        "lon": "11.0325584",
        "mon": "7:30 - 19:30 Uhr",
        "tue": "7:30 - 19:30 Uhr",
        "wed": "7:30 - 19:30 Uhr",
        "thu": "7:30 - 19:30 Uhr",
        "fri": "7:30 - 19:30 Uhr",
        "sat": "7:30 - 12:00 Uhr",
        "sun": "-",
        "url": "https://www.haema.de/spendezentren/thueringen/erfurt.html",
        "phone": "0361 644 112 0",
        "whole_blood_donation": "ja",
        "platelet_donation": "nein",
        "plasma_donation": "ja",
        "erythrocyte_donation": null
    },
    {
        "id": 138,
        "name": "Haema Blutspendezentrum Gera",
        "address": "Breitscheidstra\u00c3\u0178e 1-5",
        "zip": "\u00c2\u00b407545",
        "city": "Gera",
        "lat": "50.8774024",
        "lon": "12.0788907",
        "mon": "7:30 - 19:30 Uhr",
        "tue": "7:30 - 19:30 Uhr",
        "wed": "7:30 - 19:30 Uhr",
        "thu": "7:30 - 19:30 Uhr",
        "fri": "7:30 - 19:30 Uhr",
        "sat": "7:30 - 12:00 Uhr",
        "sun": "-",
        "url": "https://www.haema.de/spendezentren/thueringen/gera.html",
        "phone": "0365 552 068 0",
        "whole_blood_donation": "ja",
        "platelet_donation": "nein",
        "plasma_donation": "ja",
        "erythrocyte_donation": null
    },
    {
        "id": 139,
        "name": "Haema Blutspendezentrum Gotha",
        "address": "Oststra\u00c3\u0178e 51",
        "zip": "99867",
        "city": "Gotha",
        "lat": "50.9528907",
        "lon": "10.7148775",
        "mon": "7:30 - 19:30 Uhr",
        "tue": "7:30 - 19:30 Uhr",
        "wed": "7:30 - 19:30 Uhr",
        "thu": "7:30 - 19:30 Uhr",
        "fri": "7:30 - 19:30 Uhr",
        "sat": "7:30 - 12:00 Uhr",
        "sun": "-",
        "url": "https://www.haema.de/spendezentren/thueringen/gotha.html?nomob=1",
        "phone": "03621 733 770",
        "whole_blood_donation": "ja",
        "platelet_donation": "nein",
        "plasma_donation": "ja",
        "erythrocyte_donation": null
    },
    {
        "id": 140,
        "name": "Haema Blutspendezentrum Jena",
        "address": "Goethestra\u00c3\u0178e 3a",
        "zip": "\u00c2\u00b407743",
        "city": "Jena",
        "lat": "50.9275672",
        "lon": "11.5821893",
        "mon": "7:30 - 19:30 Uhr",
        "tue": "7:30 - 19:30 Uhr",
        "wed": "7:30 - 19:30 Uhr",
        "thu": "7:30 - 19:30 Uhr",
        "fri": "7:30 - 19:30 Uhr",
        "sat": "jeden 2. Samstag 7:30 - 12:00 Uhr",
        "sun": "-",
        "url": "https://www.haema.de/spendezentren/thueringen/jena.html",
        "phone": "03641 227 180",
        "whole_blood_donation": "ja",
        "platelet_donation": "nein",
        "plasma_donation": "ja",
        "erythrocyte_donation": null
    },
    {
        "id": 141,
        "name": "Haema Blutspendezentrum Weimar",
        "address": "Steubenstra\u00c3\u0178e 15",
        "zip": "99423",
        "city": "Weimar",
        "lat": "50.9772574",
        "lon": "11.3252383",
        "mon": "7:30 - 19:30 Uhr",
        "tue": "7:30 - 19:30 Uhr",
        "wed": "7:30 - 19:30 Uhr",
        "thu": "7:30 - 19:30 Uhr",
        "fri": "7:30 - 19:30 Uhr",
        "sat": "7:30 - 12:00 Uhr",
        "sun": "-",
        "url": "https://www.haema.de/spendezentren/thueringen/weimar.html?nomob=1",
        "phone": "03643 458 163 0",
        "whole_blood_donation": "ja",
        "platelet_donation": "nein",
        "plasma_donation": "ja",
        "erythrocyte_donation": null
    }
]